{
	"type" : "FeatureCollection",
	"name" : "HOTELS",
	"features" : [
		{
			"type" : "Feature",
			"geometry" : {
				"type" : "Point",
				"coordinates" : [ 103.85010826548346, 1.2991867217252204 ]
			},
			"properties" : {
				"OBJECTID" : 19844,
				"HYPERLINK" : "enquiries@hotelbencoolen.com",
				"DESCRIPTION" : null,
				"POSTALCODE" : "189626",
				"KEEPERNAME" : "Herman Gay Teow Hua",
				"TOTALROOMS" : "84",
				"INC_CRC" : "6277BB04642A8A23",
				"FMEL_UPD_D" : "20220713235853",
				"NAME" : "Hotel Bencoolen"
			}
		},
		{
			"type" : "Feature",
			"geometry" : {
				"type" : "Point",
				"coordinates" : [ 103.85672424166704, 1.2975099277444118 ]
			},
			"properties" : {
				"OBJECTID" : 19845,
				"HYPERLINK" : null,
				"DESCRIPTION" : null,
				"POSTALCODE" : "189699",
				"KEEPERNAME" : "CAI WENCHAO",
				"TOTALROOMS" : "33",
				"INC_CRC" : "6F1874D0472B9A33",
				"FMEL_UPD_D" : "20220713235853",
				"NAME" : "Hotel Calmo Bugis"
			}
		},
		{
			"type" : "Feature",
			"geometry" : {
				"type" : "Point",
				"coordinates" : [ 103.85785954464839, 1.29916295638181 ]
			},
			"properties" : {
				"OBJECTID" : 19846,
				"HYPERLINK" : "singapore@andaz.com",
				"DESCRIPTION" : null,
				"POSTALCODE" : "189354",
				"KEEPERNAME" : "Karl Stephan Oliver",
				"TOTALROOMS" : "347",
				"INC_CRC" : "60AA84F285E0B839",
				"FMEL_UPD_D" : "20230921181826",
				"NAME" : "Andaz Singapore"
			}
		},
		{
			"type" : "Feature",
			"geometry" : {
				"type" : "Point",
				"coordinates" : [ 103.85923826995847, 1.3150562904538026 ]
			},
			"properties" : {
				"OBJECTID" : 19847,
				"HYPERLINK" : null,
				"DESCRIPTION" : null,
				"POSTALCODE" : "338785",
				"KEEPERNAME" : "LIN YINHONG, ALAN",
				"TOTALROOMS" : "7",
				"INC_CRC" : "CA6DC2284BAC0C4F",
				"FMEL_UPD_D" : "20230921181826",
				"NAME" : "Beary Best! Hostel Lavender"
			}
		},
		{
			"type" : "Feature",
			"geometry" : {
				"type" : "Point",
				"coordinates" : [ 103.85333183259196, 1.2940764375653957 ]
			},
			"properties" : {
				"OBJECTID" : 19848,
				"HYPERLINK" : "singapore@fairmont.com",
				"DESCRIPTION" : null,
				"POSTALCODE" : "189560",
				"KEEPERNAME" : "Haandrikman William Johan",
				"TOTALROOMS" : "778",
				"INC_CRC" : "64140E18897D0AC8",
				"FMEL_UPD_D" : "20230921181826",
				"NAME" : "Fairmont, Singapore"
			}
		},
		{
			"type" : "Feature",
			"geometry" : {
				"type" : "Point",
				"coordinates" : [ 103.8524941081791, 1.3199988662751563 ]
			},
			"properties" : {
				"OBJECTID" : 19849,
				"HYPERLINK" : "fc.marlowhotel@gmail.com",
				"DESCRIPTION" : null,
				"POSTALCODE" : "329926",
				"KEEPERNAME" : "NG GEORGETTE",
				"TOTALROOMS" : "231",
				"INC_CRC" : "5355347F79EB82AD",
				"FMEL_UPD_D" : "20230921181826",
				"NAME" : "HOLIDAY INN EXPRESS & SUITES SINGAPORE NOVENA"
			}
		},
		{
			"type" : "Feature",
			"geometry" : {
				"type" : "Point",
				"coordinates" : [ 103.85863034860847, 1.3101410903756938 ]
			},
			"properties" : {
				"OBJECTID" : 19850,
				"HYPERLINK" : null,
				"DESCRIPTION" : null,
				"POSTALCODE" : "209019",
				"KEEPERNAME" : "Natalia Hastings",
				"TOTALROOMS" : "119",
				"INC_CRC" : "F42B9FBA4660FB7A",
				"FMEL_UPD_D" : "20230921181826",
				"NAME" : "Holiday Inn Express Singapore Serangoon"
			}
		},
		{
			"type" : "Feature",
			"geometry" : {
				"type" : "Point",
				"coordinates" : [ 103.86171499322089, 1.3103317794824925 ]
			},
			"properties" : {
				"OBJECTID" : 19851,
				"HYPERLINK" : "g0306365@hotmail.com",
				"DESCRIPTION" : null,
				"POSTALCODE" : "208559",
				"KEEPERNAME" : "Yan Tongji",
				"TOTALROOMS" : "8",
				"INC_CRC" : "F0F5D280D01FEC45",
				"FMEL_UPD_D" : "20230921181826",
				"NAME" : "Spacepod@Lavender"
			}
		},
		{
			"type" : "Feature",
			"geometry" : {
				"type" : "Point",
				"coordinates" : [ 103.8817472069227, 1.31323581232938 ]
			},
			"properties" : {
				"OBJECTID" : 19852,
				"HYPERLINK" : "newcathayhotel@yahoo.com.sg",
				"DESCRIPTION" : null,
				"POSTALCODE" : "389403",
				"KEEPERNAME" : "Timothy Seah How Ming",
				"TOTALROOMS" : "53",
				"INC_CRC" : "9A317298E2DC1AFC",
				"FMEL_UPD_D" : "20220713235853",
				"NAME" : "New Cathay Hotel (Geylang)"
			}
		},
		{
			"type" : "Feature",
			"geometry" : {
				"type" : "Point",
				"coordinates" : [ 103.85776475011451, 1.3150748050872834 ]
			},
			"properties" : {
				"OBJECTID" : 19853,
				"HYPERLINK" : null,
				"DESCRIPTION" : null,
				"POSTALCODE" : "218163",
				"KEEPERNAME" : "AMIT BHAGAT",
				"TOTALROOMS" : "28",
				"INC_CRC" : "085514FA0A54266D",
				"FMEL_UPD_D" : "20230119093336",
				"NAME" : "Atlantis @ 531"
			}
		},
		{
			"type" : "Feature",
			"geometry" : {
				"type" : "Point",
				"coordinates" : [ 103.78788567525913, 1.3046695085219333 ]
			},
			"properties" : {
				"OBJECTID" : 19854,
				"HYPERLINK" : null,
				"DESCRIPTION" : null,
				"POSTALCODE" : "139212",
				"KEEPERNAME" : "WONG MEI LING JUDY",
				"TOTALROOMS" : "135",
				"INC_CRC" : "98D8A8000A695A15",
				"FMEL_UPD_D" : "20230119093336",
				"NAME" : "Citadines Connect Rochester Singapore"
			}
		},
		{
			"type" : "Feature",
			"geometry" : {
				"type" : "Point",
				"coordinates" : [ 103.86032598569577, 1.314383991398488 ]
			},
			"properties" : {
				"OBJECTID" : 19855,
				"HYPERLINK" : null,
				"DESCRIPTION" : null,
				"POSTALCODE" : "338800",
				"KEEPERNAME" : "Kevin David Hynds",
				"TOTALROOMS" : "12",
				"INC_CRC" : "1588B45B0DBF7E25",
				"FMEL_UPD_D" : "20230119093336",
				"NAME" : "Green Kiwi Backpacker Hostel"
			}
		},
		{
			"type" : "Feature",
			"geometry" : {
				"type" : "Point",
				"coordinates" : [ 103.85192868529634, 1.3083355998170711 ]
			},
			"properties" : {
				"OBJECTID" : 19856,
				"HYPERLINK" : "singi.hotel@hilton.com",
				"DESCRIPTION" : null,
				"POSTALCODE" : "219924",
				"KEEPERNAME" : "Wan Wei-Ching, Amy",
				"TOTALROOMS" : "328",
				"INC_CRC" : "52BC35B4A2EEF8F9",
				"FMEL_UPD_D" : "20230119093336",
				"NAME" : "Hilton Garden Inn Singapore Serangoon"
			}
		},
		{
			"type" : "Feature",
			"geometry" : {
				"type" : "Point",
				"coordinates" : [ 103.8340682869932, 1.2890701916602725 ]
			},
			"properties" : {
				"OBJECTID" : 19857,
				"HYPERLINK" : "hiatrium@ichotelsgroup.com",
				"DESCRIPTION" : null,
				"POSTALCODE" : "169075",
				"KEEPERNAME" : "DE KLEER MICHIEL ALEXANDER XAVIER",
				"TOTALROOMS" : "512",
				"INC_CRC" : "11EF65BD9547E2D8",
				"FMEL_UPD_D" : "20230119093336",
				"NAME" : "Holiday Inn Singapore Atrium"
			}
		},
		{
			"type" : "Feature",
			"geometry" : {
				"type" : "Point",
				"coordinates" : [ 103.85458069849196, 1.304620790315678 ]
			},
			"properties" : {
				"OBJECTID" : 19858,
				"HYPERLINK" : null,
				"DESCRIPTION" : null,
				"POSTALCODE" : "208801",
				"KEEPERNAME" : "YAN TONGJI",
				"TOTALROOMS" : "56",
				"INC_CRC" : "4EDEA087C7161402",
				"FMEL_UPD_D" : "20220713235853",
				"NAME" : "Haising Hotel"
			}
		},
		{
			"type" : "Feature",
			"geometry" : {
				"type" : "Point",
				"coordinates" : [ 103.86150969583672, 1.3115641196817294 ]
			},
			"properties" : {
				"OBJECTID" : 19859,
				"HYPERLINK" : null,
				"DESCRIPTION" : null,
				"POSTALCODE" : "209210",
				"KEEPERNAME" : "SOH SHIL NIE",
				"TOTALROOMS" : "43",
				"INC_CRC" : "EC415EC11AE52BC8",
				"FMEL_UPD_D" : "20220713235853",
				"NAME" : "Harbour Ville Hotel Hamilton"
			}
		},
		{
			"type" : "Feature",
			"geometry" : {
				"type" : "Point",
				"coordinates" : [ 103.85921946211015, 1.3014383170994681 ]
			},
			"properties" : {
				"OBJECTID" : 19860,
				"HYPERLINK" : "sgenquiry@hericoll.com",
				"DESCRIPTION" : null,
				"POSTALCODE" : "199775",
				"KEEPERNAME" : "YAP HUI WEN",
				"TOTALROOMS" : "11",
				"INC_CRC" : "C26CC0BAB56F388A",
				"FMEL_UPD_D" : "20220713235853",
				"NAME" : "Heritage Collection on Arab"
			}
		},
		{
			"type" : "Feature",
			"geometry" : {
				"type" : "Point",
				"coordinates" : [ 103.85040226919509, 1.2985007201774226 ]
			},
			"properties" : {
				"OBJECTID" : 19861,
				"HYPERLINK" : "andrew.bastian@30bencoolen.com.sg",
				"DESCRIPTION" : null,
				"POSTALCODE" : "189621",
				"KEEPERNAME" : "TAN KHENG HWEE",
				"TOTALROOMS" : "131",
				"INC_CRC" : "45B03EF3320B1450",
				"FMEL_UPD_D" : "20220713235852",
				"NAME" : "30 BENCOOLEN"
			}
		},
		{
			"type" : "Feature",
			"geometry" : {
				"type" : "Point",
				"coordinates" : [ 103.85815506097127, 1.3101923228946535 ]
			},
			"properties" : {
				"OBJECTID" : 19862,
				"HYPERLINK" : null,
				"DESCRIPTION" : null,
				"POSTALCODE" : "208930",
				"KEEPERNAME" : "Shahjahan Bin Mohamed Sitthiq",
				"TOTALROOMS" : "5",
				"INC_CRC" : "74C130DB1452F6CA",
				"FMEL_UPD_D" : "20220713235853",
				"NAME" : "7 Wonders Hostel"
			}
		},
		{
			"type" : "Feature",
			"geometry" : {
				"type" : "Point",
				"coordinates" : [ 103.88468093030029, 1.3132410484693455 ]
			},
			"properties" : {
				"OBJECTID" : 19863,
				"HYPERLINK" : null,
				"DESCRIPTION" : null,
				"POSTALCODE" : "389447",
				"KEEPERNAME" : "Lim Siew Iy @ Lim Siew Ching",
				"TOTALROOMS" : "16",
				"INC_CRC" : "C7D6BD8F9A1D3615",
				"FMEL_UPD_D" : "20220713235853",
				"NAME" : "AL Asia Hotel"
			}
		},
		{
			"type" : "Feature",
			"geometry" : {
				"type" : "Point",
				"coordinates" : [ 103.85359739350487, 1.3111937798207418 ]
			},
			"properties" : {
				"OBJECTID" : 19864,
				"HYPERLINK" : "booking@pentahotel.com.sg",
				"DESCRIPTION" : null,
				"POSTALCODE" : "219894",
				"KEEPERNAME" : "Lim Hwee Meang Rachel",
				"TOTALROOMS" : "48",
				"INC_CRC" : "1CBC78FFEACAD597",
				"FMEL_UPD_D" : "20220713235853",
				"NAME" : "Penta Hotel"
			}
		},
		{
			"type" : "Feature",
			"geometry" : {
				"type" : "Point",
				"coordinates" : [ 103.85880513187374, 1.307320888929715 ]
			},
			"properties" : {
				"OBJECTID" : 19865,
				"HYPERLINK" : null,
				"DESCRIPTION" : null,
				"POSTALCODE" : "208582",
				"KEEPERNAME" : "Soh Shil Fang Doreen",
				"TOTALROOMS" : "62",
				"INC_CRC" : "2D4A2D8B64B10A04",
				"FMEL_UPD_D" : "20220713235853",
				"NAME" : "Hotel NuVe Urbane"
			}
		},
		{
			"type" : "Feature",
			"geometry" : {
				"type" : "Point",
				"coordinates" : [ 103.83840728472451, 1.285410024816521 ]
			},
			"properties" : {
				"OBJECTID" : 19866,
				"HYPERLINK" : "hr@hotelre.com.sg",
				"DESCRIPTION" : null,
				"POSTALCODE" : "169879",
				"KEEPERNAME" : "Tan Kwee Hiang",
				"TOTALROOMS" : "140",
				"INC_CRC" : "70403A731948BA47",
				"FMEL_UPD_D" : "20220713235853",
				"NAME" : "Hotel Re! @ Pearl's Hill"
			}
		},
		{
			"type" : "Feature",
			"geometry" : {
				"type" : "Point",
				"coordinates" : [ 103.84185948787393, 1.3168306009280815 ]
			},
			"properties" : {
				"OBJECTID" : 19867,
				"HYPERLINK" : "royal@hotelroyal.com.sg",
				"DESCRIPTION" : null,
				"POSTALCODE" : "307964",
				"KEEPERNAME" : "Lee Chou Hock",
				"TOTALROOMS" : "362",
				"INC_CRC" : "3EA4D0490223DC32",
				"FMEL_UPD_D" : "20220713235853",
				"NAME" : "Hotel Royal"
			}
		},
		{
			"type" : "Feature",
			"geometry" : {
				"type" : "Point",
				"coordinates" : [ 103.8335514134293, 1.2850946235743566 ]
			},
			"properties" : {
				"OBJECTID" : 19868,
				"HYPERLINK" : "frontdesk@hotelnostalgia.com.sg",
				"DESCRIPTION" : null,
				"POSTALCODE" : "168727",
				"KEEPERNAME" : "Paulus Liauw",
				"TOTALROOMS" : "48",
				"INC_CRC" : "711B8213EE073552",
				"FMEL_UPD_D" : "20220713235853",
				"NAME" : "Nostalgia Hotel"
			}
		},
		{
			"type" : "Feature",
			"geometry" : {
				"type" : "Point",
				"coordinates" : [ 103.82773943224464, 1.3065751631694962 ]
			},
			"properties" : {
				"OBJECTID" : 19869,
				"HYPERLINK" : "info@orh.com.sg",
				"DESCRIPTION" : null,
				"POSTALCODE" : "247905",
				"KEEPERNAME" : "Wong Siew Ling",
				"TOTALROOMS" : "388",
				"INC_CRC" : "A28ECA9D723C57F9",
				"FMEL_UPD_D" : "20220713235853",
				"NAME" : "Orchard Rendezvous Hotel, Singapore"
			}
		},
		{
			"type" : "Feature",
			"geometry" : {
				"type" : "Point",
				"coordinates" : [ 103.85182011125502, 1.2980105733789273 ]
			},
			"properties" : {
				"OBJECTID" : 19870,
				"HYPERLINK" : "reservation@oxfordhotel.com.sg",
				"DESCRIPTION" : null,
				"POSTALCODE" : "188549",
				"KEEPERNAME" : "Mohamed Rafi Bin Hasan",
				"TOTALROOMS" : "134",
				"INC_CRC" : "A973ACA1E3287E37",
				"FMEL_UPD_D" : "20220713235853",
				"NAME" : "Oxford Hotel"
			}
		},
		{
			"type" : "Feature",
			"geometry" : {
				"type" : "Point",
				"coordinates" : [ 103.84962005477456, 1.3258652142671878 ]
			},
			"properties" : {
				"OBJECTID" : 19871,
				"HYPERLINK" : "contact@gphl.com.sg",
				"DESCRIPTION" : null,
				"POSTALCODE" : "329808",
				"KEEPERNAME" : "Mufasar Eugene Charles Bin Abdullah",
				"TOTALROOMS" : "48",
				"INC_CRC" : "68FB4E0906860A5F",
				"FMEL_UPD_D" : "20241009094137",
				"NAME" : "Fragrance Hotel - Classic"
			}
		},
		{
			"type" : "Feature",
			"geometry" : {
				"type" : "Point",
				"coordinates" : [ 103.86307079956866, 1.3097895907430657 ]
			},
			"properties" : {
				"OBJECTID" : 19872,
				"HYPERLINK" : "contact@gphl.com.sg",
				"DESCRIPTION" : null,
				"POSTALCODE" : "338710",
				"KEEPERNAME" : "Mufasar Eugene Charles Bin Abdullah",
				"TOTALROOMS" : "35",
				"INC_CRC" : "4635D5C594C71120",
				"FMEL_UPD_D" : "20241009094137",
				"NAME" : "Fragrance Hotel - Lavender"
			}
		},
		{
			"type" : "Feature",
			"geometry" : {
				"type" : "Point",
				"coordinates" : [ 103.84860472638826, 1.325887419312056 ]
			},
			"properties" : {
				"OBJECTID" : 19873,
				"HYPERLINK" : "contact@gphl.com.sg",
				"DESCRIPTION" : null,
				"POSTALCODE" : "329816",
				"KEEPERNAME" : "Mufasar Eugene Charles Bin Abdullah",
				"TOTALROOMS" : "35",
				"INC_CRC" : "3485C4218F2DF158",
				"FMEL_UPD_D" : "20241009094137",
				"NAME" : "Fragrance Hotel - Oasis"
			}
		},
		{
			"type" : "Feature",
			"geometry" : {
				"type" : "Point",
				"coordinates" : [ 103.85256481320948, 1.322071786954436 ]
			},
			"properties" : {
				"OBJECTID" : 19874,
				"HYPERLINK" : "contact@gphl.com.sg",
				"DESCRIPTION" : null,
				"POSTALCODE" : "329715",
				"KEEPERNAME" : "Mufasar Eugene Charles Bin Abdullah",
				"TOTALROOMS" : "68",
				"INC_CRC" : "A4679646DC2E331C",
				"FMEL_UPD_D" : "20241009094137",
				"NAME" : "Fragrance Hotel - Rose"
			}
		},
		{
			"type" : "Feature",
			"geometry" : {
				"type" : "Point",
				"coordinates" : [ 103.81396978421105, 1.2698880661333953 ]
			},
			"properties" : {
				"OBJECTID" : 19875,
				"HYPERLINK" : "contact@gphl.com.sg",
				"DESCRIPTION" : null,
				"POSTALCODE" : "098721",
				"KEEPERNAME" : "Sun Yi",
				"TOTALROOMS" : "33",
				"INC_CRC" : "577F6AF757AEF537",
				"FMEL_UPD_D" : "20241009094137",
				"NAME" : "Fragrance Hotel - Viva"
			}
		},
		{
			"type" : "Feature",
			"geometry" : {
				"type" : "Point",
				"coordinates" : [ 103.84458855274767, 1.286473561548283 ]
			},
			"properties" : {
				"OBJECTID" : 19876,
				"HYPERLINK" : "wongsk@furama.com",
				"DESCRIPTION" : null,
				"POSTALCODE" : "059804",
				"KEEPERNAME" : "Ng Wei Yong",
				"TOTALROOMS" : "445",
				"INC_CRC" : "53FD02989231044C",
				"FMEL_UPD_D" : "20241009094137",
				"NAME" : "Furama City Centre Singapore"
			}
		},
		{
			"type" : "Feature",
			"geometry" : {
				"type" : "Point",
				"coordinates" : [ 103.83472667824685, 1.285005195077222 ]
			},
			"properties" : {
				"OBJECTID" : 19877,
				"HYPERLINK" : null,
				"DESCRIPTION" : null,
				"POSTALCODE" : "169056",
				"KEEPERNAME" : "LIN YINHONG, ALAN",
				"TOTALROOMS" : "11",
				"INC_CRC" : "E73470307BA4D15A",
				"FMEL_UPD_D" : "20241009094137",
				"NAME" : "FUTURA BOUTIQUE HOSTEL"
			}
		},
		{
			"type" : "Feature",
			"geometry" : {
				"type" : "Point",
				"coordinates" : [ 103.86114975362266, 1.2812971979526193 ]
			},
			"properties" : {
				"OBJECTID" : 19878,
				"HYPERLINK" : null,
				"DESCRIPTION" : null,
				"POSTALCODE" : "018953",
				"KEEPERNAME" : "SEAH LIANG CHIANG",
				"TOTALROOMS" : "4",
				"INC_CRC" : "9D056E7664EF19D0",
				"FMEL_UPD_D" : "20241009094137",
				"NAME" : "Garden Pod @ Gardens By The Bay"
			}
		},
		{
			"type" : "Feature",
			"geometry" : {
				"type" : "Point",
				"coordinates" : [ 103.85755542111862, 1.3159109229700838 ]
			},
			"properties" : {
				"OBJECTID" : 19879,
				"HYPERLINK" : "GREENDILIHOSTEL@GMAIL.COM",
				"DESCRIPTION" : null,
				"POSTALCODE" : "218673",
				"KEEPERNAME" : "Lin Jinhai",
				"TOTALROOMS" : "9",
				"INC_CRC" : "2184D95F0E47DF2A",
				"FMEL_UPD_D" : "20241009094137",
				"NAME" : "GREENDILI BACKPACKERS HOSTEL"
			}
		},
		{
			"type" : "Feature",
			"geometry" : {
				"type" : "Point",
				"coordinates" : [ 103.82774471609429, 1.2726140257166307 ]
			},
			"properties" : {
				"OBJECTID" : 19880,
				"HYPERLINK" : "harbourv@singnet.com.sg",
				"DESCRIPTION" : null,
				"POSTALCODE" : "099448",
				"KEEPERNAME" : "Lim Shirley",
				"TOTALROOMS" : "100",
				"INC_CRC" : "EBDEEC9931F1D5C5",
				"FMEL_UPD_D" : "20241009094137",
				"NAME" : "Harbour Ville Hotel"
			}
		},
		{
			"type" : "Feature",
			"geometry" : {
				"type" : "Point",
				"coordinates" : [ 103.84919587968207, 1.2882020747870155 ]
			},
			"properties" : {
				"OBJECTID" : 19881,
				"HYPERLINK" : null,
				"DESCRIPTION" : null,
				"POSTALCODE" : "049864",
				"KEEPERNAME" : "YAP HUI WEN",
				"TOTALROOMS" : "40",
				"INC_CRC" : "8D11DCD76935D5C1",
				"FMEL_UPD_D" : "20241009094137",
				"NAME" : "Heritage Collection on Boat Quay Quayside Wing"
			}
		},
		{
			"type" : "Feature",
			"geometry" : {
				"type" : "Point",
				"coordinates" : [ 103.84572257087783, 1.282773245114348 ]
			},
			"properties" : {
				"OBJECTID" : 19882,
				"HYPERLINK" : null,
				"DESCRIPTION" : null,
				"POSTALCODE" : "058776",
				"KEEPERNAME" : "Yap Hui Wen",
				"TOTALROOMS" : "26",
				"INC_CRC" : "FDAC3EDC7AC86681",
				"FMEL_UPD_D" : "20241009094137",
				"NAME" : "Heritage Collection on Chinatown"
			}
		},
		{
			"type" : "Feature",
			"geometry" : {
				"type" : "Point",
				"coordinates" : [ 103.84849924296553, 1.2880823791316307 ]
			},
			"properties" : {
				"OBJECTID" : 19883,
				"HYPERLINK" : null,
				"DESCRIPTION" : null,
				"POSTALCODE" : "058670",
				"KEEPERNAME" : "Yap Hui Wen",
				"TOTALROOMS" : "19",
				"INC_CRC" : "0A441E25927FC44E",
				"FMEL_UPD_D" : "20241009094137",
				"NAME" : "Heritage Collection on Clarke Quay"
			}
		},
		{
			"type" : "Feature",
			"geometry" : {
				"type" : "Point",
				"coordinates" : [ 103.84390350941219, 1.2834495419264251 ]
			},
			"properties" : {
				"OBJECTID" : 19884,
				"HYPERLINK" : "sgenquiry@hericoll.com",
				"DESCRIPTION" : null,
				"POSTALCODE" : "059222",
				"KEEPERNAME" : "YAP HUI WEN",
				"TOTALROOMS" : "16",
				"INC_CRC" : "2F3E91ACEC62532D",
				"FMEL_UPD_D" : "20241009094137",
				"NAME" : "Heritage Collection on Pagoda"
			}
		},
		{
			"type" : "Feature",
			"geometry" : {
				"type" : "Point",
				"coordinates" : [ 103.85968640565493, 1.304209119229025 ]
			},
			"properties" : {
				"OBJECTID" : 19885,
				"HYPERLINK" : null,
				"DESCRIPTION" : null,
				"POSTALCODE" : "199323",
				"KEEPERNAME" : "Lee Yi, Christabelle",
				"TOTALROOMS" : "15",
				"INC_CRC" : "8A4B432BA03332C3",
				"FMEL_UPD_D" : "20241009094137",
				"NAME" : "Hi Hotel"
			}
		},
		{
			"type" : "Feature",
			"geometry" : {
				"type" : "Point",
				"coordinates" : [ 103.87589424856898, 1.3132565842406034 ]
			},
			"properties" : {
				"OBJECTID" : 19886,
				"HYPERLINK" : null,
				"DESCRIPTION" : null,
				"POSTALCODE" : "387416",
				"KEEPERNAME" : "Tee Hui Wen Dorrine",
				"TOTALROOMS" : "46",
				"INC_CRC" : "2247F2C1019EC580",
				"FMEL_UPD_D" : "20241009094137",
				"NAME" : "Hi Hotel Dot"
			}
		},
		{
			"type" : "Feature",
			"geometry" : {
				"type" : "Point",
				"coordinates" : [ 103.83616740414436, 1.3020903315902226 ]
			},
			"properties" : {
				"OBJECTID" : 19887,
				"HYPERLINK" : "HiltonSingaporeOrchard.info@hilton.com",
				"DESCRIPTION" : null,
				"POSTALCODE" : "238867",
				"KEEPERNAME" : "Hallam Rupert Martin",
				"TOTALROOMS" : "1,080",
				"INC_CRC" : "06ACFDEA5BD67B75",
				"FMEL_UPD_D" : "20241009094137",
				"NAME" : "Hilton Singapore Orchard"
			}
		},
		{
			"type" : "Feature",
			"geometry" : {
				"type" : "Point",
				"coordinates" : [ 103.84198392574707, 1.2892440266570344 ]
			},
			"properties" : {
				"OBJECTID" : 19888,
				"HYPERLINK" : "info.sincq@ihg.com",
				"DESCRIPTION" : null,
				"POSTALCODE" : "059573",
				"KEEPERNAME" : "Vasundhra",
				"TOTALROOMS" : "442",
				"INC_CRC" : "F0535AE34BF1016C",
				"FMEL_UPD_D" : "20241009094137",
				"NAME" : "Holiday Inn Express Singapore Clarke Quay"
			}
		},
		{
			"type" : "Feature",
			"geometry" : {
				"type" : "Point",
				"coordinates" : [ 103.85474815922838, 1.311980970778147 ]
			},
			"properties" : {
				"OBJECTID" : 19889,
				"HYPERLINK" : null,
				"DESCRIPTION" : null,
				"POSTALCODE" : "217564",
				"KEEPERNAME" : "Shreyas Ladde",
				"TOTALROOMS" : "300",
				"INC_CRC" : "EB1C5A7800E1829B",
				"FMEL_UPD_D" : "20241009094137",
				"NAME" : "Holiday Inn Singapore Little India"
			}
		},
		{
			"type" : "Feature",
			"geometry" : {
				"type" : "Point",
				"coordinates" : [ 103.84428550604258, 1.2842397770731269 ]
			},
			"properties" : {
				"OBJECTID" : 19890,
				"HYPERLINK" : "enquiry@hotel1900.com.sg",
				"DESCRIPTION" : null,
				"POSTALCODE" : "059526",
				"KEEPERNAME" : "Hu Yingna",
				"TOTALROOMS" : "134",
				"INC_CRC" : "6007287F5CE71D87",
				"FMEL_UPD_D" : "20241009094137",
				"NAME" : "Hotel 1900"
			}
		},
		{
			"type" : "Feature",
			"geometry" : {
				"type" : "Point",
				"coordinates" : [ 103.84409849527867, 1.284563671639076 ]
			},
			"properties" : {
				"OBJECTID" : 19891,
				"HYPERLINK" : "hotel81@hotel81.com.sg",
				"DESCRIPTION" : null,
				"POSTALCODE" : "059418",
				"KEEPERNAME" : "Chu Poh Yong",
				"TOTALROOMS" : "95",
				"INC_CRC" : "6BB3C9FB51DC289F",
				"FMEL_UPD_D" : "20241009094137",
				"NAME" : "Hotel 81 - Chinatown"
			}
		},
		{
			"type" : "Feature",
			"geometry" : {
				"type" : "Point",
				"coordinates" : [ 103.84185943616382, 1.2796668995154632 ]
			},
			"properties" : {
				"OBJECTID" : 19892,
				"HYPERLINK" : "hotel81@hotel81.com.sg",
				"DESCRIPTION" : null,
				"POSTALCODE" : "089263",
				"KEEPERNAME" : "Chu Poh Yong",
				"TOTALROOMS" : "39",
				"INC_CRC" : "F844FDFC23E3EE25",
				"FMEL_UPD_D" : "20241009094137",
				"NAME" : "Hotel 81 - Cosy"
			}
		},
		{
			"type" : "Feature",
			"geometry" : {
				"type" : "Point",
				"coordinates" : [ 103.84767230585908, 1.2870935911996508 ]
			},
			"properties" : {
				"OBJECTID" : 19893,
				"HYPERLINK" : "reservation.hkst@hotelbencoolen.com",
				"DESCRIPTION" : null,
				"POSTALCODE" : "059685",
				"KEEPERNAME" : "Herman Gay Teow Hua",
				"TOTALROOMS" : "53",
				"INC_CRC" : "ABEA22C7802BA4F3",
				"FMEL_UPD_D" : "20241009094137",
				"NAME" : "Hotel Bencoolen @ Hong Kong Street"
			}
		},
		{
			"type" : "Feature",
			"geometry" : {
				"type" : "Point",
				"coordinates" : [ 103.86026674695145, 1.305713227038106 ]
			},
			"properties" : {
				"OBJECTID" : 19894,
				"HYPERLINK" : "contact@hotelboss.sg",
				"DESCRIPTION" : null,
				"POSTALCODE" : "199020",
				"KEEPERNAME" : "Goh Kok Keong",
				"TOTALROOMS" : "1,500",
				"INC_CRC" : "9EB09D9E5D8B3081",
				"FMEL_UPD_D" : "20241009094137",
				"NAME" : "Hotel Boss"
			}
		},
		{
			"type" : "Feature",
			"geometry" : {
				"type" : "Point",
				"coordinates" : [ 103.84417516823979, 1.2825676791862064 ]
			},
			"properties" : {
				"OBJECTID" : 19895,
				"HYPERLINK" : null,
				"DESCRIPTION" : null,
				"POSTALCODE" : "058476",
				"KEEPERNAME" : "CAI WENCHAO",
				"TOTALROOMS" : "80",
				"INC_CRC" : "43A2210732BFAB5D",
				"FMEL_UPD_D" : "20241009094137",
				"NAME" : "Hotel Calmo Chinatown"
			}
		},
		{
			"type" : "Feature",
			"geometry" : {
				"type" : "Point",
				"coordinates" : [ 103.84771170354144, 1.2874640486692592 ]
			},
			"properties" : {
				"OBJECTID" : 19896,
				"HYPERLINK" : "enquiries@hotelclover.com",
				"DESCRIPTION" : null,
				"POSTALCODE" : "059650",
				"KEEPERNAME" : "Teo Kok Hwee",
				"TOTALROOMS" : "27",
				"INC_CRC" : "6E91038E24192C7A",
				"FMEL_UPD_D" : "20241009094137",
				"NAME" : "Hotel Clover 7 Hongkong Street"
			}
		},
		{
			"type" : "Feature",
			"geometry" : {
				"type" : "Point",
				"coordinates" : [ 103.85958447077108, 1.3036708135044086 ]
			},
			"properties" : {
				"OBJECTID" : 19897,
				"HYPERLINK" : "info@hotelclover769.com",
				"DESCRIPTION" : null,
				"POSTALCODE" : "198737",
				"KEEPERNAME" : "TEO JUN LIANG, JEREMY",
				"TOTALROOMS" : "35",
				"INC_CRC" : "4DFBFFE30BD990F3",
				"FMEL_UPD_D" : "20241009094137",
				"NAME" : "Hotel Clover 769 North Bridge Road"
			}
		},
		{
			"type" : "Feature",
			"geometry" : {
				"type" : "Point",
				"coordinates" : [ 103.84814134116462, 1.2875416388910232 ]
			},
			"properties" : {
				"OBJECTID" : 19898,
				"HYPERLINK" : null,
				"DESCRIPTION" : null,
				"POSTALCODE" : "058689",
				"KEEPERNAME" : "Ang Kian Kok",
				"TOTALROOMS" : "44",
				"INC_CRC" : "9862AB392945483D",
				"FMEL_UPD_D" : "20241009094137",
				"NAME" : "Hotel Clover The Arts"
			}
		},
		{
			"type" : "Feature",
			"geometry" : {
				"type" : "Point",
				"coordinates" : [ 103.88185709394195, 1.310988034200718 ]
			},
			"properties" : {
				"OBJECTID" : 19899,
				"HYPERLINK" : null,
				"DESCRIPTION" : null,
				"POSTALCODE" : "398693",
				"KEEPERNAME" : "LEE YI, CHRISTABELLE",
				"TOTALROOMS" : "49",
				"INC_CRC" : "3B1C3D9ADA79745B",
				"FMEL_UPD_D" : "20241009094137",
				"NAME" : "Hotel Compass"
			}
		},
		{
			"type" : "Feature",
			"geometry" : {
				"type" : "Point",
				"coordinates" : [ 103.84785588566582, 1.2883472876482653 ]
			},
			"properties" : {
				"OBJECTID" : 19900,
				"HYPERLINK" : "main@conforto.com.sg",
				"DESCRIPTION" : null,
				"POSTALCODE" : "059905",
				"KEEPERNAME" : "Ng Wee Meng",
				"TOTALROOMS" : "22",
				"INC_CRC" : "3D9C99545FAC4E26",
				"FMEL_UPD_D" : "20241009094137",
				"NAME" : "Hotel Conforto"
			}
		},
		{
			"type" : "Feature",
			"geometry" : {
				"type" : "Point",
				"coordinates" : [ 103.8132023815435, 1.270164914383249 ]
			},
			"properties" : {
				"OBJECTID" : 19901,
				"HYPERLINK" : "contact@hotelfaberpark-singapore.com",
				"DESCRIPTION" : null,
				"POSTALCODE" : "099593",
				"KEEPERNAME" : "Sun Yi",
				"TOTALROOMS" : "194",
				"INC_CRC" : "02011C3559C11DC6",
				"FMEL_UPD_D" : "20241009094137",
				"NAME" : "Hotel Faber Park Singapore - Handwritten Collection"
			}
		},
		{
			"type" : "Feature",
			"geometry" : {
				"type" : "Point",
				"coordinates" : [ 103.85830838860707, 1.282333350982249 ]
			},
			"properties" : {
				"OBJECTID" : 19521,
				"HYPERLINK" : "inquiries@marinabaysands.com",
				"DESCRIPTION" : null,
				"POSTALCODE" : "018956",
				"KEEPERNAME" : "Tane Peter Picken",
				"TOTALROOMS" : "1,838",
				"INC_CRC" : "EE049C95A1CE4075",
				"FMEL_UPD_D" : "20250711142807",
				"NAME" : "Marina Bay Sands Singapore"
			}
		},
		{
			"type" : "Feature",
			"geometry" : {
				"type" : "Point",
				"coordinates" : [ 103.84644348561116, 1.2829238661872029 ]
			},
			"properties" : {
				"OBJECTID" : 19522,
				"HYPERLINK" : "HC2S1@accor.com",
				"DESCRIPTION" : null,
				"POSTALCODE" : "069472",
				"KEEPERNAME" : "CROSS NORMAN FRANCIS",
				"TOTALROOMS" : "989",
				"INC_CRC" : "116F720B88EF366D",
				"FMEL_UPD_D" : "20250711142807",
				"NAME" : "MERCURE ICON SINGAPORE CITY CENTRE"
			}
		},
		{
			"type" : "Feature",
			"geometry" : {
				"type" : "Point",
				"coordinates" : [ 103.8546593483877, 1.304740914601265 ]
			},
			"properties" : {
				"OBJECTID" : 19523,
				"HYPERLINK" : "js.runedra@gmail.com",
				"DESCRIPTION" : null,
				"POSTALCODE" : "208804",
				"KEEPERNAME" : "Teo Ai Choo",
				"TOTALROOMS" : "40",
				"INC_CRC" : "3C69BB60125B85E8",
				"FMEL_UPD_D" : "20250711142807",
				"NAME" : "Meriton Hotel"
			}
		},
		{
			"type" : "Feature",
			"geometry" : {
				"type" : "Point",
				"coordinates" : [ 103.82635332099144, 1.3164669363133608 ]
			},
			"properties" : {
				"OBJECTID" : 19524,
				"HYPERLINK" : "askmore@mymca.org.sg",
				"DESCRIPTION" : null,
				"POSTALCODE" : "257854",
				"KEEPERNAME" : "Gerald Lim Buan Siang",
				"TOTALROOMS" : "98",
				"INC_CRC" : "1BA26A1F6216310C",
				"FMEL_UPD_D" : "20250711142807",
				"NAME" : "Metropolitan YMCA Singapore"
			}
		},
		{
			"type" : "Feature",
			"geometry" : {
				"type" : "Point",
				"coordinates" : [ 103.80537007929739, 1.2875799452601258 ]
			},
			"properties" : {
				"OBJECTID" : 19525,
				"HYPERLINK" : "askme.mhas@momentushotels.com",
				"DESCRIPTION" : null,
				"POSTALCODE" : "159972",
				"KEEPERNAME" : "CHOW KENG HAI",
				"TOTALROOMS" : "442",
				"INC_CRC" : "54DE4BD69B9977A1",
				"FMEL_UPD_D" : "20250711142807",
				"NAME" : "Momentus Hotel Alexandra"
			}
		},
		{
			"type" : "Feature",
			"geometry" : {
				"type" : "Point",
				"coordinates" : [ 103.86182144955731, 1.3108792462378618 ]
			},
			"properties" : {
				"OBJECTID" : 19526,
				"HYPERLINK" : "A@18IG.SG",
				"DESCRIPTION" : null,
				"POSTALCODE" : "209854",
				"KEEPERNAME" : "Ramaiah Rathi",
				"TOTALROOMS" : "32",
				"INC_CRC" : "7A21C3F1D421A204",
				"FMEL_UPD_D" : "20250711142807",
				"NAME" : "NEST HOTEL"
			}
		},
		{
			"type" : "Feature",
			"geometry" : {
				"type" : "Point",
				"coordinates" : [ 103.83407588494164, 1.2855642918243937 ]
			},
			"properties" : {
				"OBJECTID" : 19527,
				"HYPERLINK" : "reservations@newcapeinn.com",
				"DESCRIPTION" : null,
				"POSTALCODE" : "168891",
				"KEEPERNAME" : "Wong Wai Cheong",
				"TOTALROOMS" : "76",
				"INC_CRC" : "7F64CEFD5B323493",
				"FMEL_UPD_D" : "20250711142807",
				"NAME" : "New Cape Inn"
			}
		},
		{
			"type" : "Feature",
			"geometry" : {
				"type" : "Point",
				"coordinates" : [ 103.85565743054656, 1.3105302425015077 ]
			},
			"properties" : {
				"OBJECTID" : 19528,
				"HYPERLINK" : "HC269@accor.com",
				"DESCRIPTION" : null,
				"POSTALCODE" : "208533",
				"KEEPERNAME" : "Lim Keng Swee",
				"TOTALROOMS" : "543",
				"INC_CRC" : "268232B7F50A2472",
				"FMEL_UPD_D" : "20250711142807",
				"NAME" : "Novotel Singapore on Kitchener"
			}
		},
		{
			"type" : "Feature",
			"geometry" : {
				"type" : "Point",
				"coordinates" : [ 103.84478238821583, 1.3200300458843874 ]
			},
			"properties" : {
				"OBJECTID" : 19529,
				"HYPERLINK" : "frontofc.ohs@fareast.com.sg",
				"DESCRIPTION" : null,
				"POSTALCODE" : "307470",
				"KEEPERNAME" : "Roy Liang Ming Kai",
				"TOTALROOMS" : "428",
				"INC_CRC" : "80CA87F821CB9D01",
				"FMEL_UPD_D" : "20250711142807",
				"NAME" : "Oasia Hotel Novena, Singapore"
			}
		},
		{
			"type" : "Feature",
			"geometry" : {
				"type" : "Point",
				"coordinates" : [ 103.82816440606017, 1.3076686088929157 ]
			},
			"properties" : {
				"OBJECTID" : 19530,
				"HYPERLINK" : null,
				"DESCRIPTION" : null,
				"POSTALCODE" : "238879",
				"KEEPERNAME" : "Lobo Guimaraes Camoeira Nelson",
				"TOTALROOMS" : "656",
				"INC_CRC" : "B8CCD00CE5E43DE6",
				"FMEL_UPD_D" : "20250711142807",
				"NAME" : "Orchard Hotel Singapore"
			}
		},
		{
			"type" : "Feature",
			"geometry" : {
				"type" : "Point",
				"coordinates" : [ 103.84403989223102, 1.4110359847406548 ]
			},
			"properties" : {
				"OBJECTID" : 19531,
				"HYPERLINK" : "roomsales@orchidclub.com",
				"DESCRIPTION" : null,
				"POSTALCODE" : "769162",
				"KEEPERNAME" : "THANGAVELU GOPAL",
				"TOTALROOMS" : "75",
				"INC_CRC" : "08FD95B453A5DEC1",
				"FMEL_UPD_D" : "20250711142807",
				"NAME" : "Orchid Country Club"
			}
		},
		{
			"type" : "Feature",
			"geometry" : {
				"type" : "Point",
				"coordinates" : [ 103.85495321030089, 1.311707327251361 ]
			},
			"properties" : {
				"OBJECTID" : 19532,
				"HYPERLINK" : null,
				"DESCRIPTION" : null,
				"POSTALCODE" : "218842",
				"KEEPERNAME" : "JONATHAN WONG KEE WEE",
				"TOTALROOMS" : "103",
				"INC_CRC" : "4DC1FFEFF9ECE0F7",
				"FMEL_UPD_D" : "20250711142807",
				"NAME" : "Owen House by Habyt"
			}
		},
		{
			"type" : "Feature",
			"geometry" : {
				"type" : "Point",
				"coordinates" : [ 103.82987211619461, 1.3073723374340604 ]
			},
			"properties" : {
				"OBJECTID" : 19533,
				"HYPERLINK" : null,
				"DESCRIPTION" : null,
				"POSTALCODE" : "229540",
				"KEEPERNAME" : "Leung Jason",
				"TOTALROOMS" : "343",
				"INC_CRC" : "B9F45AC26668E433",
				"FMEL_UPD_D" : "20250711142807",
				"NAME" : "Pan Pacific Orchard"
			}
		},
		{
			"type" : "Feature",
			"geometry" : {
				"type" : "Point",
				"coordinates" : [ 103.8602329066835, 1.299433961135786 ]
			},
			"properties" : {
				"OBJECTID" : 19534,
				"HYPERLINK" : null,
				"DESCRIPTION" : null,
				"POSTALCODE" : "199592",
				"KEEPERNAME" : "YAP TECK WAI",
				"TOTALROOMS" : "180",
				"INC_CRC" : "9E6BED1E267DB481",
				"FMEL_UPD_D" : "20250711142807",
				"NAME" : "Pan Pacific Serviced Suites Beach Road"
			}
		},
		{
			"type" : "Feature",
			"geometry" : {
				"type" : "Point",
				"coordinates" : [ 103.84444332236718, 1.288083550525635 ]
			},
			"properties" : {
				"OBJECTID" : 19535,
				"HYPERLINK" : "stang@parkregisbyprince.com",
				"DESCRIPTION" : null,
				"POSTALCODE" : "058268",
				"KEEPERNAME" : "TANG SUAN PEN",
				"TOTALROOMS" : "203",
				"INC_CRC" : "604959AA83B9205D",
				"FMEL_UPD_D" : "20250711142807",
				"NAME" : "Park Regis By Prince Singapore"
			}
		},
		{
			"type" : "Feature",
			"geometry" : {
				"type" : "Point",
				"coordinates" : [ 103.86007022537086, 1.2994537368080945 ]
			},
			"properties" : {
				"OBJECTID" : 19536,
				"HYPERLINK" : "enquiry@parkroyalhotels.com",
				"DESCRIPTION" : null,
				"POSTALCODE" : "199591",
				"KEEPERNAME" : "Tan Chin Kee",
				"TOTALROOMS" : "346",
				"INC_CRC" : "4924DB8DC9CA3D55",
				"FMEL_UPD_D" : "20250711142807",
				"NAME" : "PARKROYAL on Beach Road, Singapore"
			}
		},
		{
			"type" : "Feature",
			"geometry" : {
				"type" : "Point",
				"coordinates" : [ 103.94704995456983, 1.331601069006251 ]
			},
			"properties" : {
				"OBJECTID" : 19537,
				"HYPERLINK" : "mgtqloft@gmail.com",
				"DESCRIPTION" : null,
				"POSTALCODE" : "469546",
				"KEEPERNAME" : "Chen Mei Xuan",
				"TOTALROOMS" : "13",
				"INC_CRC" : "D659C4A49246EF3D",
				"FMEL_UPD_D" : "20250711142807",
				"NAME" : "Q Loft Hotels@Bedok"
			}
		},
		{
			"type" : "Feature",
			"geometry" : {
				"type" : "Point",
				"coordinates" : [ 103.82635058488556, 1.2468024797346262 ]
			},
			"properties" : {
				"OBJECTID" : 19538,
				"HYPERLINK" : "HB5Q2@raffles.com",
				"DESCRIPTION" : null,
				"POSTALCODE" : "099947",
				"KEEPERNAME" : "GIOVANNI VITERALE",
				"TOTALROOMS" : "62",
				"INC_CRC" : "5341DC4D10E274BE",
				"FMEL_UPD_D" : "20250711142807",
				"NAME" : "Raffles Sentosa Singapore"
			}
		},
		{
			"type" : "Feature",
			"geometry" : {
				"type" : "Point",
				"coordinates" : [ 103.8438996351851, 1.2828593226553942 ]
			},
			"properties" : {
				"OBJECTID" : 19539,
				"HYPERLINK" : "justin.wong@hotel1888.com.sg",
				"DESCRIPTION" : null,
				"POSTALCODE" : "058479",
				"KEEPERNAME" : "Adrian Siow Shen Ngin",
				"TOTALROOMS" : "40",
				"INC_CRC" : "0D678930F492076B",
				"FMEL_UPD_D" : "20250711142807",
				"NAME" : "Rest Chinatown Hotel"
			}
		},
		{
			"type" : "Feature",
			"geometry" : {
				"type" : "Point",
				"coordinates" : [ 103.63508982800445, 1.3415880002481664 ]
			},
			"properties" : {
				"OBJECTID" : 19540,
				"HYPERLINK" : "recept@rafflesmarina.com.sg",
				"DESCRIPTION" : null,
				"POSTALCODE" : "638404",
				"KEEPERNAME" : "Sunil Motilal Shamdasani",
				"TOTALROOMS" : "19",
				"INC_CRC" : "E4AF163C9A069C7E",
				"FMEL_UPD_D" : "20250711142807",
				"NAME" : "RM Hotel"
			}
		},
		{
			"type" : "Feature",
			"geometry" : {
				"type" : "Point",
				"coordinates" : [ 103.83144576981998, 1.3070893181722556 ]
			},
			"properties" : {
				"OBJECTID" : 19541,
				"HYPERLINK" : "royal@royalplaza.com.sg",
				"DESCRIPTION" : null,
				"POSTALCODE" : "228220",
				"KEEPERNAME" : "Dharmik Kumar",
				"TOTALROOMS" : "507",
				"INC_CRC" : "05B26C8F3B3B148A",
				"FMEL_UPD_D" : "20250711142807",
				"NAME" : "Royal Plaza on Scotts"
			}
		},
		{
			"type" : "Feature",
			"geometry" : {
				"type" : "Point",
				"coordinates" : [ 103.86020887190523, 1.3119091491803878 ]
			},
			"properties" : {
				"OBJECTID" : 19542,
				"HYPERLINK" : null,
				"DESCRIPTION" : null,
				"POSTALCODE" : "207566",
				"KEEPERNAME" : "Samantha Jonash Chan Sue Yee",
				"TOTALROOMS" : "19",
				"INC_CRC" : "89CA0A7AC62E8295",
				"FMEL_UPD_D" : "20250711142807",
				"NAME" : "Rucksack Inn Tyrwhitt"
			}
		},
		{
			"type" : "Feature",
			"geometry" : {
				"type" : "Point",
				"coordinates" : [ 103.80979789432243, 1.2578020551667732 ]
			},
			"properties" : {
				"OBJECTID" : 19543,
				"HYPERLINK" : "sen@shangri-la.com",
				"DESCRIPTION" : null,
				"POSTALCODE" : "098970",
				"KEEPERNAME" : "Kuok Oon Kwong",
				"TOTALROOMS" : "454",
				"INC_CRC" : "BB45D01060F0FF47",
				"FMEL_UPD_D" : "20250711142807",
				"NAME" : "Shangri-La Rasa Sentosa, Singapore"
			}
		},
		{
			"type" : "Feature",
			"geometry" : {
				"type" : "Point",
				"coordinates" : [ 103.83472195199836, 1.285135828782229 ]
			},
			"properties" : {
				"OBJECTID" : 19544,
				"HYPERLINK" : "shiying.hou@theassemblyplace.com",
				"DESCRIPTION" : null,
				"POSTALCODE" : "169057",
				"KEEPERNAME" : "Lim Yingjie Eugene (Lin Yingjie)",
				"TOTALROOMS" : "26",
				"INC_CRC" : "71A38C51DC83D237",
				"FMEL_UPD_D" : "20250711142807",
				"NAME" : "SOCIAL on Outram"
			}
		},
		{
			"type" : "Feature",
			"geometry" : {
				"type" : "Point",
				"coordinates" : [ 103.8531352679535, 1.3010867862895916 ]
			},
			"properties" : {
				"OBJECTID" : 19545,
				"HYPERLINK" : "southeastasia190@gmail.com",
				"DESCRIPTION" : null,
				"POSTALCODE" : "187965",
				"KEEPERNAME" : "Huang Wen Hwa",
				"TOTALROOMS" : "51",
				"INC_CRC" : "79F3132439B516C0",
				"FMEL_UPD_D" : "20250711142807",
				"NAME" : "South East Asia Hotel"
			}
		},
		{
			"type" : "Feature",
			"geometry" : {
				"type" : "Point",
				"coordinates" : [ 103.85656978634856, 1.2973033722686254 ]
			},
			"properties" : {
				"OBJECTID" : 19546,
				"HYPERLINK" : "license@straitsorg.com",
				"DESCRIPTION" : null,
				"POSTALCODE" : "189694",
				"KEEPERNAME" : "ALAN GOH KENG CHIAN",
				"TOTALROOMS" : "38",
				"INC_CRC" : "DB99D87ABDE14E52",
				"FMEL_UPD_D" : "20250711142807",
				"NAME" : "ST Signature Bugis Beach"
			}
		},
		{
			"type" : "Feature",
			"geometry" : {
				"type" : "Point",
				"coordinates" : [ 103.8390761913928, 1.2907775411153137 ]
			},
			"properties" : {
				"OBJECTID" : 19547,
				"HYPERLINK" : "enquiry.smh@millenniumhotels.com",
				"DESCRIPTION" : null,
				"POSTALCODE" : "238910",
				"KEEPERNAME" : "Tan Pee Hock",
				"TOTALROOMS" : "360",
				"INC_CRC" : "F03EF56BE6EC5AAC",
				"FMEL_UPD_D" : "20250711142807",
				"NAME" : "Studio M Hotel"
			}
		},
		{
			"type" : "Feature",
			"geometry" : {
				"type" : "Point",
				"coordinates" : [ 103.84386847886807, 1.2832066079532185 ]
			},
			"properties" : {
				"OBJECTID" : 19548,
				"HYPERLINK" : "rsvn.room@theinn.com.sg",
				"DESCRIPTION" : null,
				"POSTALCODE" : "058581",
				"KEEPERNAME" : "Ding Jiahong",
				"TOTALROOMS" : "42",
				"INC_CRC" : "DB87DFC60B096E5C",
				"FMEL_UPD_D" : "20250711142807",
				"NAME" : "The Inn at Temple Street"
			}
		},
		{
			"type" : "Feature",
			"geometry" : {
				"type" : "Point",
				"coordinates" : [ 103.8192656671601, 1.257034397442113 ]
			},
			"properties" : {
				"OBJECTID" : 19549,
				"HYPERLINK" : "sinsl.ays@theluxurycollectionhotels.com",
				"DESCRIPTION" : null,
				"POSTALCODE" : "098139",
				"KEEPERNAME" : "Morahan Stephen Michael",
				"TOTALROOMS" : "183",
				"INC_CRC" : "CF138CEFBF900E94",
				"FMEL_UPD_D" : "20250711142807",
				"NAME" : "The Laurus, A Luxury Collection Resort"
			}
		},
		{
			"type" : "Feature",
			"geometry" : {
				"type" : "Point",
				"coordinates" : [ 103.85322445195258, 1.3091790021298446 ]
			},
			"properties" : {
				"OBJECTID" : 19550,
				"HYPERLINK" : "Info@thequaylittleindia.com",
				"DESCRIPTION" : null,
				"POSTALCODE" : "218067",
				"KEEPERNAME" : "Heng Chern Chieh Germaine",
				"TOTALROOMS" : "65",
				"INC_CRC" : "6FA883FFD87B07ED",
				"FMEL_UPD_D" : "20250711142807",
				"NAME" : "The Quay Hotel Little India"
			}
		},
		{
			"type" : "Feature",
			"geometry" : {
				"type" : "Point",
				"coordinates" : [ 103.83574831342791, 1.3077515324741358 ]
			},
			"properties" : {
				"OBJECTID" : 19551,
				"HYPERLINK" : "Dutymanager.tqh@fareast.com",
				"DESCRIPTION" : null,
				"POSTALCODE" : "228517",
				"KEEPERNAME" : "Muhammad Hafiq Bin Johari",
				"TOTALROOMS" : "108",
				"INC_CRC" : "0DDCF09C0F2ED280",
				"FMEL_UPD_D" : "20250711142807",
				"NAME" : "The Quincy Hotel"
			}
		},
		{
			"type" : "Feature",
			"geometry" : {
				"type" : "Point",
				"coordinates" : [ 103.8423274281683, 1.2915459523653985 ]
			},
			"properties" : {
				"OBJECTID" : 19552,
				"HYPERLINK" : null,
				"DESCRIPTION" : null,
				"POSTALCODE" : "237983",
				"KEEPERNAME" : "WONG SIEW KHEE",
				"TOTALROOMS" : "336",
				"INC_CRC" : "54AAC0D34A2B966F",
				"FMEL_UPD_D" : "20250711142807",
				"NAME" : "The Robertson House by The Crest Collection"
			}
		},
		{
			"type" : "Feature",
			"geometry" : {
				"type" : "Point",
				"coordinates" : [ 103.85693478767901, 1.2980018251338632 ]
			},
			"properties" : {
				"OBJECTID" : 19553,
				"HYPERLINK" : null,
				"DESCRIPTION" : null,
				"POSTALCODE" : "188091",
				"KEEPERNAME" : "JIN CHENCHEN",
				"TOTALROOMS" : "6",
				"INC_CRC" : "8635C255DD2D9F44",
				"FMEL_UPD_D" : "20250711142807",
				"NAME" : "THE ROOM @ BUGIS"
			}
		},
		{
			"type" : "Feature",
			"geometry" : {
				"type" : "Point",
				"coordinates" : [ 103.8456568081053, 1.2834189402695373 ]
			},
			"properties" : {
				"OBJECTID" : 19554,
				"HYPERLINK" : "admin@southbridge.com",
				"DESCRIPTION" : null,
				"POSTALCODE" : "058759",
				"KEEPERNAME" : "Leong Mun Choy, Bernard",
				"TOTALROOMS" : "30",
				"INC_CRC" : "BBB01783A0DDF130",
				"FMEL_UPD_D" : "20250711142807",
				"NAME" : "The Southbridge Hotel"
			}
		},
		{
			"type" : "Feature",
			"geometry" : {
				"type" : "Point",
				"coordinates" : [ 103.82640952928044, 1.3101400589092096 ]
			},
			"properties" : {
				"OBJECTID" : 19555,
				"HYPERLINK" : null,
				"DESCRIPTION" : null,
				"POSTALCODE" : "258353",
				"KEEPERNAME" : "Lu Fang-Yi @ Amy Lu",
				"TOTALROOMS" : "143",
				"INC_CRC" : "D196B56FB04EC0CE",
				"FMEL_UPD_D" : "20250711142807",
				"NAME" : "THE STANDARD, SINGAPORE"
			}
		},
		{
			"type" : "Feature",
			"geometry" : {
				"type" : "Point",
				"coordinates" : [ 103.85189944847576, 1.2282875128378963 ]
			},
			"properties" : {
				"OBJECTID" : 19556,
				"HYPERLINK" : "adrian@bigtinygroup.com",
				"DESCRIPTION" : null,
				"POSTALCODE" : "099556",
				"KEEPERNAME" : "Chia Guo Rong, Adrian",
				"TOTALROOMS" : "5",
				"INC_CRC" : "DFA0EB42622EAF65",
				"FMEL_UPD_D" : "20250711142807",
				"NAME" : "Tiny Away Escape @ Lazarus Island"
			}
		},
		{
			"type" : "Feature",
			"geometry" : {
				"type" : "Point",
				"coordinates" : [ 103.82379222283258, 1.2663367975456106 ]
			},
			"properties" : {
				"OBJECTID" : 19557,
				"HYPERLINK" : null,
				"DESCRIPTION" : null,
				"POSTALCODE" : "098828",
				"KEEPERNAME" : "Daniel Koh Swee Aun",
				"TOTALROOMS" : "336",
				"INC_CRC" : "FF47311E01AAA384",
				"FMEL_UPD_D" : "20250711142807",
				"NAME" : "Travelodge Harbourfront Singapore"
			}
		},
		{
			"type" : "Feature",
			"geometry" : {
				"type" : "Point",
				"coordinates" : [ 103.8357123052816, 1.3080241170865556 ]
			},
			"properties" : {
				"OBJECTID" : 19558,
				"HYPERLINK" : "dutymanager.vhso@fareast.com",
				"DESCRIPTION" : null,
				"POSTALCODE" : "228518",
				"KEEPERNAME" : "Muhammad Hafiq Bin Johari",
				"TOTALROOMS" : "256",
				"INC_CRC" : "8285E2735D9C9ECB",
				"FMEL_UPD_D" : "20250711142807",
				"NAME" : "Vibe Hotel Singapore Orchard"
			}
		},
		{
			"type" : "Feature",
			"geometry" : {
				"type" : "Point",
				"coordinates" : [ 103.82931489863446, 1.3058790214837366 ]
			},
			"properties" : {
				"OBJECTID" : 19559,
				"HYPERLINK" : null,
				"DESCRIPTION" : null,
				"POSTALCODE" : "238883",
				"KEEPERNAME" : "Mujumdar Vikram Satish",
				"TOTALROOMS" : "423",
				"INC_CRC" : "90E604E9962CD8DE",
				"FMEL_UPD_D" : "20250711142807",
				"NAME" : "voco Orchard Singapore"
			}
		},
		{
			"type" : "Feature",
			"geometry" : {
				"type" : "Point",
				"coordinates" : [ 103.85462963395106, 1.305120937947007 ]
			},
			"properties" : {
				"OBJECTID" : 19560,
				"HYPERLINK" : null,
				"DESCRIPTION" : null,
				"POSTALCODE" : "209494",
				"KEEPERNAME" : "Kon Thiam Fook",
				"TOTALROOMS" : "29",
				"INC_CRC" : "E634CAE2C322F0C9",
				"FMEL_UPD_D" : "20250711142807",
				"NAME" : "Wanderlust"
			}
		},
		{
			"type" : "Feature",
			"geometry" : {
				"type" : "Point",
				"coordinates" : [ 103.85016512817388, 1.291847214094742 ]
			},
			"properties" : {
				"OBJECTID" : 19561,
				"HYPERLINK" : "enquiries@wyndhamsingapore.com",
				"DESCRIPTION" : null,
				"POSTALCODE" : "179804",
				"KEEPERNAME" : "Andrew Yap Chi En",
				"TOTALROOMS" : "591",
				"INC_CRC" : "8EB53290A981508E",
				"FMEL_UPD_D" : "20250711142807",
				"NAME" : "WYNDHAM SINGAPORE HOTEL"
			}
		},
		{
			"type" : "Feature",
			"geometry" : {
				"type" : "Point",
				"coordinates" : [ 103.84810479369807, 1.297610364996033 ]
			},
			"properties" : {
				"OBJECTID" : 19562,
				"HYPERLINK" : "booking@ymca.org.sg",
				"DESCRIPTION" : null,
				"POSTALCODE" : "238824",
				"KEEPERNAME" : "Chow Yok Lim",
				"TOTALROOMS" : "110",
				"INC_CRC" : "D06E04F67A66A117",
				"FMEL_UPD_D" : "20250711142807",
				"NAME" : "YMCA@One Orchard"
			}
		},
		{
			"type" : "Feature",
			"geometry" : {
				"type" : "Point",
				"coordinates" : [ 103.84498684486175, 1.297467974675937 ]
			},
			"properties" : {
				"OBJECTID" : 19563,
				"HYPERLINK" : "ywcafortcanning@ywca.org.sg",
				"DESCRIPTION" : null,
				"POSTALCODE" : "179494",
				"KEEPERNAME" : "Tay Song Mong Kelvin",
				"TOTALROOMS" : "175",
				"INC_CRC" : "82B7633B681A9D64",
				"FMEL_UPD_D" : "20250711142807",
				"NAME" : "YWCA Fort Canning"
			}
		},
		{
			"type" : "Feature",
			"geometry" : {
				"type" : "Point",
				"coordinates" : [ 103.86027180233485, 1.3123796568512032 ]
			},
			"properties" : {
				"OBJECTID" : 19564,
				"HYPERLINK" : "hotel81@hotel81.com.sg",
				"DESCRIPTION" : null,
				"POSTALCODE" : "209276",
				"KEEPERNAME" : "Chu Poh Yong",
				"TOTALROOMS" : "120",
				"INC_CRC" : "ACA17E3BE41C367A",
				"FMEL_UPD_D" : "20240402085039",
				"NAME" : "Hotel 81 - Elegance"
			}
		},
		{
			"type" : "Feature",
			"geometry" : {
				"type" : "Point",
				"coordinates" : [ 103.87886675133855, 1.35420717029808 ]
			},
			"properties" : {
				"OBJECTID" : 19565,
				"HYPERLINK" : "hotel81@hotel81.com.sg",
				"DESCRIPTION" : null,
				"POSTALCODE" : "534636",
				"KEEPERNAME" : "Chu Poh Yong",
				"TOTALROOMS" : "89",
				"INC_CRC" : "80EC1F375C5D6F69",
				"FMEL_UPD_D" : "20240402085039",
				"NAME" : "Hotel 81 - Kovan"
			}
		},
		{
			"type" : "Feature",
			"geometry" : {
				"type" : "Point",
				"coordinates" : [ 103.9042984533731, 1.3051165810090142 ]
			},
			"properties" : {
				"OBJECTID" : 19566,
				"HYPERLINK" : null,
				"DESCRIPTION" : null,
				"POSTALCODE" : "428788",
				"KEEPERNAME" : "Adel Aramouni",
				"TOTALROOMS" : "131",
				"INC_CRC" : "F5982FEEDBE592DB",
				"FMEL_UPD_D" : "20240402085039",
				"NAME" : "Hotel Indigo Singapore Katong"
			}
		},
		{
			"type" : "Feature",
			"geometry" : {
				"type" : "Point",
				"coordinates" : [ 103.87750597300455, 1.3114556698631261 ]
			},
			"properties" : {
				"OBJECTID" : 19567,
				"HYPERLINK" : "contact@ibisbudget-singapore.com",
				"DESCRIPTION" : null,
				"POSTALCODE" : "399043",
				"KEEPERNAME" : "Gan Kuan Yew",
				"TOTALROOMS" : "38",
				"INC_CRC" : "C4D60DCE926F1682",
				"FMEL_UPD_D" : "20240402085039",
				"NAME" : "ibis budget Singapore Ametrine"
			}
		},
		{
			"type" : "Feature",
			"geometry" : {
				"type" : "Point",
				"coordinates" : [ 103.85555616428945, 1.2969208179571512 ]
			},
			"properties" : {
				"OBJECTID" : 19568,
				"HYPERLINK" : "contact@ibisbudget-singapore.com",
				"DESCRIPTION" : null,
				"POSTALCODE" : "188942",
				"KEEPERNAME" : "Tan Thuang Wee",
				"TOTALROOMS" : "84",
				"INC_CRC" : "88B2486056C09F50",
				"FMEL_UPD_D" : "20240402085039",
				"NAME" : "ibis budget Singapore Bugis"
			}
		},
		{
			"type" : "Feature",
			"geometry" : {
				"type" : "Point",
				"coordinates" : [ 103.8805894884154, 1.3105749756816079 ]
			},
			"properties" : {
				"OBJECTID" : 19569,
				"HYPERLINK" : "contact@ibisbudget-singapore.com",
				"DESCRIPTION" : null,
				"POSTALCODE" : "398824",
				"KEEPERNAME" : "GAN KUAN YEW",
				"TOTALROOMS" : "125",
				"INC_CRC" : "6AA223E6702E9E23",
				"FMEL_UPD_D" : "20240402085039",
				"NAME" : "ibis budget Singapore Crystal"
			}
		},
		{
			"type" : "Feature",
			"geometry" : {
				"type" : "Point",
				"coordinates" : [ 103.87634174803866, 1.3110098783770527 ]
			},
			"properties" : {
				"OBJECTID" : 19570,
				"HYPERLINK" : "contact@ibisbudget-singapore.com",
				"DESCRIPTION" : null,
				"POSTALCODE" : "399174",
				"KEEPERNAME" : "Gan Kuan Yew",
				"TOTALROOMS" : "126",
				"INC_CRC" : "91DAF06E033F1247",
				"FMEL_UPD_D" : "20240402085039",
				"NAME" : "ibis budget Singapore Emerald"
			}
		},
		{
			"type" : "Feature",
			"geometry" : {
				"type" : "Point",
				"coordinates" : [ 103.87780057829823, 1.3142976388969596 ]
			},
			"properties" : {
				"OBJECTID" : 19571,
				"HYPERLINK" : "contact@ibisbudget-singapore.com",
				"DESCRIPTION" : null,
				"POSTALCODE" : "387446",
				"KEEPERNAME" : "Gan Kuan Yew",
				"TOTALROOMS" : "44",
				"INC_CRC" : "9C7B92C4E5A53253",
				"FMEL_UPD_D" : "20240402085039",
				"NAME" : "ibis budget Singapore Gold"
			}
		},
		{
			"type" : "Feature",
			"geometry" : {
				"type" : "Point",
				"coordinates" : [ 103.9012469608434, 1.3114949830275404 ]
			},
			"properties" : {
				"OBJECTID" : 19572,
				"HYPERLINK" : "contact@ibisbudget-singapore.com",
				"DESCRIPTION" : null,
				"POSTALCODE" : "427485",
				"KEEPERNAME" : "GAN KUAN YEW",
				"TOTALROOMS" : "90",
				"INC_CRC" : "812779CA8F71623F",
				"FMEL_UPD_D" : "20240402085039",
				"NAME" : "ibis budget Singapore Joo Chiat"
			}
		},
		{
			"type" : "Feature",
			"geometry" : {
				"type" : "Point",
				"coordinates" : [ 103.87928917376793, 1.3115605592032782 ]
			},
			"properties" : {
				"OBJECTID" : 19573,
				"HYPERLINK" : "contact@ibisbudget-singapore.com",
				"DESCRIPTION" : null,
				"POSTALCODE" : "398961",
				"KEEPERNAME" : "GAN KUAN YEW",
				"TOTALROOMS" : "129",
				"INC_CRC" : "298ADD99E48974EE",
				"FMEL_UPD_D" : "20240402085039",
				"NAME" : "ibis budget Singapore Pearl"
			}
		},
		{
			"type" : "Feature",
			"geometry" : {
				"type" : "Point",
				"coordinates" : [ 103.88109710906242, 1.3122378913628128 ]
			},
			"properties" : {
				"OBJECTID" : 19574,
				"HYPERLINK" : "contact@ibisbudget-singapore.com",
				"DESCRIPTION" : null,
				"POSTALCODE" : "398730",
				"KEEPERNAME" : "Gan Kuan yew",
				"TOTALROOMS" : "168",
				"INC_CRC" : "F7D1924E3D944799",
				"FMEL_UPD_D" : "20240402085039",
				"NAME" : "ibis budget Singapore Ruby"
			}
		},
		{
			"type" : "Feature",
			"geometry" : {
				"type" : "Point",
				"coordinates" : [ 103.8777694472167, 1.3117575157953758 ]
			},
			"properties" : {
				"OBJECTID" : 19575,
				"HYPERLINK" : "contact@ibisbudget-singapore.com",
				"DESCRIPTION" : null,
				"POSTALCODE" : "399037",
				"KEEPERNAME" : "GAN KUAN YEW",
				"TOTALROOMS" : "60",
				"INC_CRC" : "2C95B57F7007E260",
				"FMEL_UPD_D" : "20240402085039",
				"NAME" : "ibis budget Singapore Sapphire"
			}
		},
		{
			"type" : "Feature",
			"geometry" : {
				"type" : "Point",
				"coordinates" : [ 103.84994891967722, 1.3037652773554107 ]
			},
			"properties" : {
				"OBJECTID" : 19576,
				"HYPERLINK" : "contact@ibisbudget-singapore.com",
				"DESCRIPTION" : null,
				"POSTALCODE" : "188329",
				"KEEPERNAME" : "Tan Thuang Wee",
				"TOTALROOMS" : "95",
				"INC_CRC" : "E202BBE708BED3F5",
				"FMEL_UPD_D" : "20240402085039",
				"NAME" : "ibis budget Singapore Selegie"
			}
		},
		{
			"type" : "Feature",
			"geometry" : {
				"type" : "Point",
				"coordinates" : [ 103.76888827279745, 1.2922089251387041 ]
			},
			"properties" : {
				"OBJECTID" : 19577,
				"HYPERLINK" : "contact@ibisbudget-singapore.com",
				"DESCRIPTION" : null,
				"POSTALCODE" : "118759",
				"KEEPERNAME" : "Sun Yi",
				"TOTALROOMS" : "57",
				"INC_CRC" : "0D3FCE0317C03FE5",
				"FMEL_UPD_D" : "20240402085039",
				"NAME" : "ibis budget Singapore West Coast"
			}
		},
		{
			"type" : "Feature",
			"geometry" : {
				"type" : "Point",
				"coordinates" : [ 103.85242267833345, 1.3009631642515909 ]
			},
			"properties" : {
				"OBJECTID" : 19578,
				"HYPERLINK" : "h6657@accor.com",
				"DESCRIPTION" : null,
				"POSTALCODE" : "189657",
				"KEEPERNAME" : "Lane David Malcolm",
				"TOTALROOMS" : "534",
				"INC_CRC" : "CE29B88E30FDADB2",
				"FMEL_UPD_D" : "20240402085039",
				"NAME" : "Ibis Singapore on Bencoolen"
			}
		},
		{
			"type" : "Feature",
			"geometry" : {
				"type" : "Point",
				"coordinates" : [ 103.83922407700497, 1.3005095418351722 ]
			},
			"properties" : {
				"OBJECTID" : 19579,
				"HYPERLINK" : "singaporeorchardgateway@hoteljen.com",
				"DESCRIPTION" : null,
				"POSTALCODE" : "238858",
				"KEEPERNAME" : "Kuok Oon Kwong",
				"TOTALROOMS" : "499",
				"INC_CRC" : "BE1CAD1F904AF7F2",
				"FMEL_UPD_D" : "20240402085039",
				"NAME" : "JEN Singapore Orchardgateway by Shangri-La"
			}
		},
		{
			"type" : "Feature",
			"geometry" : {
				"type" : "Point",
				"coordinates" : [ 103.87624034059057, 1.3114355346383122 ]
			},
			"properties" : {
				"OBJECTID" : 19580,
				"HYPERLINK" : "kth6@kimtianhotel.com",
				"DESCRIPTION" : null,
				"POSTALCODE" : "399166",
				"KEEPERNAME" : "Steven Han How Chye",
				"TOTALROOMS" : "43",
				"INC_CRC" : "108A3FBCA5CD5729",
				"FMEL_UPD_D" : "20240402085039",
				"NAME" : "Kim Tian (Star) Hotel"
			}
		},
		{
			"type" : "Feature",
			"geometry" : {
				"type" : "Point",
				"coordinates" : [ 103.87620286919307, 1.3101606970045558 ]
			},
			"properties" : {
				"OBJECTID" : 19581,
				"HYPERLINK" : "kth4@kimtianhotel.com",
				"DESCRIPTION" : null,
				"POSTALCODE" : "399281",
				"KEEPERNAME" : "Steven Han How Chye",
				"TOTALROOMS" : "48",
				"INC_CRC" : "5286CCA6F93DB077",
				"FMEL_UPD_D" : "20240402085039",
				"NAME" : "Kim Tian Hotel (Han)"
			}
		},
		{
			"type" : "Feature",
			"geometry" : {
				"type" : "Point",
				"coordinates" : [ 103.88313063262856, 1.313019092043357 ]
			},
			"properties" : {
				"OBJECTID" : 19582,
				"HYPERLINK" : "otl@laiming.com.sg",
				"DESCRIPTION" : null,
				"POSTALCODE" : "389396",
				"KEEPERNAME" : "Ong Tong Liang",
				"TOTALROOMS" : "15",
				"INC_CRC" : "D8439240A3FABDC4",
				"FMEL_UPD_D" : "20240402085039",
				"NAME" : "Lai Ming Hotel"
			}
		},
		{
			"type" : "Feature",
			"geometry" : {
				"type" : "Point",
				"coordinates" : [ 103.84945862617039, 1.291575960806379 ]
			},
			"properties" : {
				"OBJECTID" : 19583,
				"HYPERLINK" : null,
				"DESCRIPTION" : null,
				"POSTALCODE" : "179370",
				"KEEPERNAME" : "Genevieve Khua",
				"TOTALROOMS" : "329",
				"INC_CRC" : "7C29A0FE65DC0E0E",
				"FMEL_UPD_D" : "20240402085039",
				"NAME" : "lyf Funan Singapore"
			}
		},
		{
			"type" : "Feature",
			"geometry" : {
				"type" : "Point",
				"coordinates" : [ 103.82839949340557, 1.3139410985861888 ]
			},
			"properties" : {
				"OBJECTID" : 19584,
				"HYPERLINK" : "H9561-gm@accor.com",
				"DESCRIPTION" : null,
				"POSTALCODE" : "257878",
				"KEEPERNAME" : "Kupiec Piotr Jan",
				"TOTALROOMS" : "518",
				"INC_CRC" : "736907AADFAD1C6A",
				"FMEL_UPD_D" : "20240402085039",
				"NAME" : "Mercure Singapore on Stevens"
			}
		},
		{
			"type" : "Feature",
			"geometry" : {
				"type" : "Point",
				"coordinates" : [ 103.82757121387971, 1.3051808104932854 ]
			},
			"properties" : {
				"OBJECTID" : 19585,
				"HYPERLINK" : null,
				"DESCRIPTION" : null,
				"POSTALCODE" : "249731",
				"KEEPERNAME" : "Chia Ngiang Hong",
				"TOTALROOMS" : "204",
				"INC_CRC" : "BDC4BC1901D0D325",
				"FMEL_UPD_D" : "20240402085039",
				"NAME" : "The Singapore Edition"
			}
		},
		{
			"type" : "Feature",
			"geometry" : {
				"type" : "Point",
				"coordinates" : [ 103.88372359548876, 1.3161266722257805 ]
			},
			"properties" : {
				"OBJECTID" : 19586,
				"HYPERLINK" : "urbanhostelsg@gmail.com",
				"DESCRIPTION" : null,
				"POSTALCODE" : "388189",
				"KEEPERNAME" : "Tan Kee Chong Derrick",
				"TOTALROOMS" : "11",
				"INC_CRC" : "5296EC963C022348",
				"FMEL_UPD_D" : "20240402085039",
				"NAME" : "Urban Hostel"
			}
		},
		{
			"type" : "Feature",
			"geometry" : {
				"type" : "Point",
				"coordinates" : [ 103.9005824676944, 1.3115479181389438 ]
			},
			"properties" : {
				"OBJECTID" : 19587,
				"HYPERLINK" : "venuelily@venuehotel.sg",
				"DESCRIPTION" : null,
				"POSTALCODE" : "427495",
				"KEEPERNAME" : "Chu Poh Yong",
				"TOTALROOMS" : "84",
				"INC_CRC" : "2B19BCD450AE5121",
				"FMEL_UPD_D" : "20240402085039",
				"NAME" : "Venue Hotel The Lily"
			}
		},
		{
			"type" : "Feature",
			"geometry" : {
				"type" : "Point",
				"coordinates" : [ 103.86172930537411, 1.302012807479586 ]
			},
			"properties" : {
				"OBJECTID" : 19588,
				"HYPERLINK" : null,
				"DESCRIPTION" : null,
				"POSTALCODE" : "198965",
				"KEEPERNAME" : "SIM JU GEK, MARLENE KEMMY",
				"TOTALROOMS" : "65",
				"INC_CRC" : "CFA7AC67ED8591FA",
				"FMEL_UPD_D" : "20240402085039",
				"NAME" : "Weave Suites Midtown"
			}
		},
		{
			"type" : "Feature",
			"geometry" : {
				"type" : "Point",
				"coordinates" : [ 103.98907755519384, 1.360340996716565 ]
			},
			"properties" : {
				"OBJECTID" : 19589,
				"HYPERLINK" : "jca.finance@yotel.com",
				"DESCRIPTION" : null,
				"POSTALCODE" : "819666",
				"KEEPERNAME" : "Kwan Hun Fah",
				"TOTALROOMS" : "130",
				"INC_CRC" : "F81397E0701757CE",
				"FMEL_UPD_D" : "20240402085039",
				"NAME" : "YotelAir Singapore Changi Airport"
			}
		},
		{
			"type" : "Feature",
			"geometry" : {
				"type" : "Point",
				"coordinates" : [ 103.83081146454458, 1.2778487591375414 ]
			},
			"properties" : {
				"OBJECTID" : 19590,
				"HYPERLINK" : null,
				"DESCRIPTION" : null,
				"POSTALCODE" : "160146",
				"KEEPERNAME" : "GOH KAY LOON",
				"TOTALROOMS" : "7",
				"INC_CRC" : "83EE621BAB4300D6",
				"FMEL_UPD_D" : "20240402085039",
				"NAME" : "Zero Hostel"
			}
		},
		{
			"type" : "Feature",
			"geometry" : {
				"type" : "Point",
				"coordinates" : [ 103.85412052279405, 1.3039225766947207 ]
			},
			"properties" : {
				"OBJECTID" : 19591,
				"HYPERLINK" : null,
				"DESCRIPTION" : null,
				"POSTALCODE" : "208786",
				"KEEPERNAME" : "Lim Yingjie Eugene",
				"TOTALROOMS" : "22",
				"INC_CRC" : "CCB8DFF724A698F0",
				"FMEL_UPD_D" : "20230119093336",
				"NAME" : "The Assembly Place, A Co-Living Hotel @ Mayo"
			}
		},
		{
			"type" : "Feature",
			"geometry" : {
				"type" : "Point",
				"coordinates" : [ 103.85475723570757, 1.3113745019536667 ]
			},
			"properties" : {
				"OBJECTID" : 19592,
				"HYPERLINK" : null,
				"DESCRIPTION" : null,
				"POSTALCODE" : "218224",
				"KEEPERNAME" : "HARPREET KAUR BEDI",
				"TOTALROOMS" : "90",
				"INC_CRC" : "EA0DB2783BD618C8",
				"FMEL_UPD_D" : "20230119093336",
				"NAME" : "The Serangoon House, Singapore, a Tribute Portfolio Hotel"
			}
		},
		{
			"type" : "Feature",
			"geometry" : {
				"type" : "Point",
				"coordinates" : [ 103.86097592158448, 1.3031659866808605 ]
			},
			"properties" : {
				"OBJECTID" : 19593,
				"HYPERLINK" : "info@thesultan.com.sg",
				"DESCRIPTION" : null,
				"POSTALCODE" : "199002",
				"KEEPERNAME" : "Ong Shu Xian Charmaine",
				"TOTALROOMS" : "61",
				"INC_CRC" : "BFB7ECAF0F59DC62",
				"FMEL_UPD_D" : "20230119093336",
				"NAME" : "The Sultan"
			}
		},
		{
			"type" : "Feature",
			"geometry" : {
				"type" : "Point",
				"coordinates" : [ 103.85840165101638, 1.306890595404285 ]
			},
			"properties" : {
				"OBJECTID" : 19594,
				"HYPERLINK" : "ADMINISTRATION.MANAGER@THEGARCHAGROUP.COM",
				"DESCRIPTION" : null,
				"POSTALCODE" : "207630",
				"KEEPERNAME" : "Harpreet Kaur Bedi",
				"TOTALROOMS" : "41",
				"INC_CRC" : "CE5B3EE1BFB40CC7",
				"FMEL_UPD_D" : "20230119093336",
				"NAME" : "The Vagabond Club"
			}
		},
		{
			"type" : "Feature",
			"geometry" : {
				"type" : "Point",
				"coordinates" : [ 103.88550402445102, 1.3140008402424663 ]
			},
			"properties" : {
				"OBJECTID" : 19595,
				"HYPERLINK" : null,
				"DESCRIPTION" : null,
				"POSTALCODE" : "389504",
				"KEEPERNAME" : "Goh Yeow Gin Eugene",
				"TOTALROOMS" : "18",
				"INC_CRC" : "30054E24A286FF4D",
				"FMEL_UPD_D" : "20230119093336",
				"NAME" : "Yew Lian Hotel"
			}
		},
		{
			"type" : "Feature",
			"geometry" : {
				"type" : "Point",
				"coordinates" : [ 103.88758411747004, 1.3139645442140124 ]
			},
			"properties" : {
				"OBJECTID" : 19596,
				"HYPERLINK" : null,
				"DESCRIPTION" : null,
				"POSTALCODE" : "389525",
				"KEEPERNAME" : "Tan Tong Wah",
				"TOTALROOMS" : "10",
				"INC_CRC" : "C04DF895463F3C25",
				"FMEL_UPD_D" : "20220713235853",
				"NAME" : "Hup Hoe Hotel"
			}
		},
		{
			"type" : "Feature",
			"geometry" : {
				"type" : "Point",
				"coordinates" : [ 103.84554505616309, 1.326147853612468 ]
			},
			"properties" : {
				"OBJECTID" : 19597,
				"HYPERLINK" : null,
				"DESCRIPTION" : null,
				"POSTALCODE" : "329543",
				"KEEPERNAME" : "Lui Cheng Yan Josephine",
				"TOTALROOMS" : "241",
				"INC_CRC" : "D0FE7701947F4ADF",
				"FMEL_UPD_D" : "20220713235853",
				"NAME" : "Ibis Singapore Novena"
			}
		},
		{
			"type" : "Feature",
			"geometry" : {
				"type" : "Point",
				"coordinates" : [ 103.85118687895147, 1.3035924655278954 ]
			},
			"properties" : {
				"OBJECTID" : 19598,
				"HYPERLINK" : "contact@ibisstyles-singapore-albert.com",
				"DESCRIPTION" : null,
				"POSTALCODE" : "189970",
				"KEEPERNAME" : "Tan Thuang Wee",
				"TOTALROOMS" : "172",
				"INC_CRC" : "E445128BE50FEAF7",
				"FMEL_UPD_D" : "20220713235853",
				"NAME" : "ibis Styles Singapore Albert"
			}
		},
		{
			"type" : "Feature",
			"geometry" : {
				"type" : "Point",
				"coordinates" : [ 103.85852050632387, 1.3076975569871825 ]
			},
			"properties" : {
				"OBJECTID" : 19599,
				"HYPERLINK" : "hq@j8hotel.com",
				"DESCRIPTION" : null,
				"POSTALCODE" : "207606",
				"KEEPERNAME" : "Joseph Lee Boon Leng",
				"TOTALROOMS" : "96",
				"INC_CRC" : "15783D1C52E09DA6",
				"FMEL_UPD_D" : "20220713235853",
				"NAME" : "J8 Hotel"
			}
		},
		{
			"type" : "Feature",
			"geometry" : {
				"type" : "Point",
				"coordinates" : [ 103.88277588665095, 1.311711832285652 ]
			},
			"properties" : {
				"OBJECTID" : 19600,
				"HYPERLINK" : "eddyswee2017@gmail.com",
				"DESCRIPTION" : null,
				"POSTALCODE" : "399535",
				"KEEPERNAME" : "Suey Hueh King",
				"TOTALROOMS" : "36",
				"INC_CRC" : "74D42465590C16D6",
				"FMEL_UPD_D" : "20220713235853",
				"NAME" : "Jade Hotel"
			}
		},
		{
			"type" : "Feature",
			"geometry" : {
				"type" : "Point",
				"coordinates" : [ 103.82391236058885, 1.3042705309298008 ]
			},
			"properties" : {
				"OBJECTID" : 19601,
				"HYPERLINK" : "singaporetanglin@hoteljen.com",
				"DESCRIPTION" : null,
				"POSTALCODE" : "249716",
				"KEEPERNAME" : "Kuok Oon Kwong",
				"TOTALROOMS" : "565",
				"INC_CRC" : "B5529ACF9E6012E4",
				"FMEL_UPD_D" : "20220713235853",
				"NAME" : "JEN Singapore Tanglin by Shangri-La"
			}
		},
		{
			"type" : "Feature",
			"geometry" : {
				"type" : "Point",
				"coordinates" : [ 103.87746016367223, 1.3115858693130018 ]
			},
			"properties" : {
				"OBJECTID" : 19602,
				"HYPERLINK" : "anguskt@gmail.com",
				"DESCRIPTION" : null,
				"POSTALCODE" : "399041",
				"KEEPERNAME" : "CHEN ZHIQIONG",
				"TOTALROOMS" : "42",
				"INC_CRC" : "A22CE6E92D6AEBF0",
				"FMEL_UPD_D" : "20220713235853",
				"NAME" : "JH HOTEL"
			}
		},
		{
			"type" : "Feature",
			"geometry" : {
				"type" : "Point",
				"coordinates" : [ 103.87780362958237, 1.311591656553926 ]
			},
			"properties" : {
				"OBJECTID" : 19603,
				"HYPERLINK" : "JXINHOTEL@GMAIL.COM",
				"DESCRIPTION" : null,
				"POSTALCODE" : "399042",
				"KEEPERNAME" : "CHEN ZHIQIONG",
				"TOTALROOMS" : "36",
				"INC_CRC" : "1D1079E24E9BEDC3",
				"FMEL_UPD_D" : "20220713235853",
				"NAME" : "JXIN HOTEL"
			}
		},
		{
			"type" : "Feature",
			"geometry" : {
				"type" : "Point",
				"coordinates" : [ 103.87751288979891, 1.3112885567553392 ]
			},
			"properties" : {
				"OBJECTID" : 19604,
				"HYPERLINK" : null,
				"DESCRIPTION" : null,
				"POSTALCODE" : "399045",
				"KEEPERNAME" : "CAI WENCHAO",
				"TOTALROOMS" : "28",
				"INC_CRC" : "FDFE52E2A7DA73CF",
				"FMEL_UPD_D" : "20220713235853",
				"NAME" : "K HOTEL 12"
			}
		},
		{
			"type" : "Feature",
			"geometry" : {
				"type" : "Point",
				"coordinates" : [ 103.87754128741975, 1.3112308415203258 ]
			},
			"properties" : {
				"OBJECTID" : 19605,
				"HYPERLINK" : null,
				"DESCRIPTION" : null,
				"POSTALCODE" : "399047",
				"KEEPERNAME" : "CAI WENCHAO",
				"TOTALROOMS" : "45",
				"INC_CRC" : "3C17D726A70BECCE",
				"FMEL_UPD_D" : "20220713235853",
				"NAME" : "K HOTEL 14"
			}
		},
		{
			"type" : "Feature",
			"geometry" : {
				"type" : "Point",
				"coordinates" : [ 103.87739728525574, 1.3106742864329475 ]
			},
			"properties" : {
				"OBJECTID" : 19606,
				"HYPERLINK" : null,
				"DESCRIPTION" : null,
				"POSTALCODE" : "399099",
				"KEEPERNAME" : "CAI WENCHAO",
				"TOTALROOMS" : "27",
				"INC_CRC" : "79215385E3D73497",
				"FMEL_UPD_D" : "20220713235853",
				"NAME" : "K Hotel 8"
			}
		},
		{
			"type" : "Feature",
			"geometry" : {
				"type" : "Point",
				"coordinates" : [ 103.85316669816557, 1.3133397890802836 ]
			},
			"properties" : {
				"OBJECTID" : 19607,
				"HYPERLINK" : null,
				"DESCRIPTION" : null,
				"POSTALCODE" : "218903",
				"KEEPERNAME" : "CAI WENCHAO",
				"TOTALROOMS" : "6",
				"INC_CRC" : "ACC37C9B5A9A9BBF",
				"FMEL_UPD_D" : "20220713235853",
				"NAME" : "K SPACE INN OWEN"
			}
		},
		{
			"type" : "Feature",
			"geometry" : {
				"type" : "Point",
				"coordinates" : [ 103.78640340837083, 1.2806180587611864 ]
			},
			"properties" : {
				"OBJECTID" : 19608,
				"HYPERLINK" : "hello@k2guesthouse.com",
				"DESCRIPTION" : null,
				"POSTALCODE" : "118146",
				"KEEPERNAME" : "Woon Li Ming Rachel",
				"TOTALROOMS" : "24",
				"INC_CRC" : "4036C00427A903C8",
				"FMEL_UPD_D" : "20220713235853",
				"NAME" : "K2 Guesthouse"
			}
		},
		{
			"type" : "Feature",
			"geometry" : {
				"type" : "Point",
				"coordinates" : [ 103.85640120773927, 1.3066864516544086 ]
			},
			"properties" : {
				"OBJECTID" : 19609,
				"HYPERLINK" : null,
				"DESCRIPTION" : null,
				"POSTALCODE" : "208852",
				"KEEPERNAME" : "WOON LI MING RACHEL",
				"TOTALROOMS" : "15",
				"INC_CRC" : "2D2347DBCF59C246",
				"FMEL_UPD_D" : "20220713235853",
				"NAME" : "K2 Guesthouse Central"
			}
		},
		{
			"type" : "Feature",
			"geometry" : {
				"type" : "Point",
				"coordinates" : [ 103.85572299390877, 1.2967817884836523 ]
			},
			"properties" : {
				"OBJECTID" : 19610,
				"HYPERLINK" : null,
				"DESCRIPTION" : null,
				"POSTALCODE" : "188933",
				"KEEPERNAME" : "NG KAY HIONG",
				"TOTALROOMS" : "80",
				"INC_CRC" : "C90C00454B4A5680",
				"FMEL_UPD_D" : "20250711142807",
				"NAME" : "A HOTEL BUGIS"
			}
		},
		{
			"type" : "Feature",
			"geometry" : {
				"type" : "Point",
				"coordinates" : [ 103.8418123313168, 1.2807921611677762 ]
			},
			"properties" : {
				"OBJECTID" : 19611,
				"HYPERLINK" : "KELV.NG@HOTMAIL.COM",
				"DESCRIPTION" : null,
				"POSTALCODE" : "089154",
				"KEEPERNAME" : "NG KAY HIONG",
				"TOTALROOMS" : "33",
				"INC_CRC" : "E4F5799E224CB6AE",
				"FMEL_UPD_D" : "20250711142807",
				"NAME" : "A HOTEL CHINATOWN"
			}
		},
		{
			"type" : "Feature",
			"geometry" : {
				"type" : "Point",
				"coordinates" : [ 103.85525094561206, 1.309142069866352 ]
			},
			"properties" : {
				"OBJECTID" : 19612,
				"HYPERLINK" : null,
				"DESCRIPTION" : null,
				"POSTALCODE" : "209645",
				"KEEPERNAME" : "NG KAY HIONG",
				"TOTALROOMS" : "54",
				"INC_CRC" : "73DBAFACCE18632C",
				"FMEL_UPD_D" : "20250711142807",
				"NAME" : "A HOTEL DESKER"
			}
		},
		{
			"type" : "Feature",
			"geometry" : {
				"type" : "Point",
				"coordinates" : [ 103.85404436521205, 1.3050839552532594 ]
			},
			"properties" : {
				"OBJECTID" : 19613,
				"HYPERLINK" : null,
				"DESCRIPTION" : null,
				"POSTALCODE" : "209507",
				"KEEPERNAME" : "Ng Kay Hiong",
				"TOTALROOMS" : "76",
				"INC_CRC" : "3FC96F5462F0E04D",
				"FMEL_UPD_D" : "20250711142807",
				"NAME" : "A HOTEL DICKSON"
			}
		},
		{
			"type" : "Feature",
			"geometry" : {
				"type" : "Point",
				"coordinates" : [ 103.89838323023801, 1.3147288187815225 ]
			},
			"properties" : {
				"OBJECTID" : 19614,
				"HYPERLINK" : null,
				"DESCRIPTION" : null,
				"POSTALCODE" : "427726",
				"KEEPERNAME" : "NG KAY HIONG",
				"TOTALROOMS" : "81",
				"INC_CRC" : "22703934643AC2F5",
				"FMEL_UPD_D" : "20250711142807",
				"NAME" : "A HOTEL JOO CHIAT"
			}
		},
		{
			"type" : "Feature",
			"geometry" : {
				"type" : "Point",
				"coordinates" : [ 103.82201659101443, 1.2521280004891842 ]
			},
			"properties" : {
				"OBJECTID" : 19615,
				"HYPERLINK" : "sentosa@amarasanctuary.com",
				"DESCRIPTION" : null,
				"POSTALCODE" : "099394",
				"KEEPERNAME" : "Lim Hock Soon",
				"TOTALROOMS" : "140",
				"INC_CRC" : "7E2F91BFE51B81CA",
				"FMEL_UPD_D" : "20250711142807",
				"NAME" : "Amara Sanctuary Resort, Sentosa"
			}
		},
		{
			"type" : "Feature",
			"geometry" : {
				"type" : "Point",
				"coordinates" : [ 103.84350011716676, 1.27493473787886 ]
			},
			"properties" : {
				"OBJECTID" : 19616,
				"HYPERLINK" : "singapore@amarahotels.com",
				"DESCRIPTION" : null,
				"POSTALCODE" : "088539",
				"KEEPERNAME" : "Aeria Gordon Michael Gerard",
				"TOTALROOMS" : "380",
				"INC_CRC" : "B8E4090829B7DFF4",
				"FMEL_UPD_D" : "20250711142807",
				"NAME" : "Amara Singapore"
			}
		},
		{
			"type" : "Feature",
			"geometry" : {
				"type" : "Point",
				"coordinates" : [ 103.84572151066199, 1.2807288857311965 ]
			},
			"properties" : {
				"OBJECTID" : 19617,
				"HYPERLINK" : null,
				"DESCRIPTION" : null,
				"POSTALCODE" : "069708",
				"KEEPERNAME" : "Kon Thiam Fook",
				"TOTALROOMS" : "20",
				"INC_CRC" : "73EE86A86630BCD0",
				"FMEL_UPD_D" : "20250711142807",
				"NAME" : "Ann Siang House"
			}
		},
		{
			"type" : "Feature",
			"geometry" : {
				"type" : "Point",
				"coordinates" : [ 103.89860872020012, 1.3149641293038936 ]
			},
			"properties" : {
				"OBJECTID" : 19618,
				"HYPERLINK" : "madelinelee@aqueenhotels.com",
				"DESCRIPTION" : null,
				"POSTALCODE" : "427373",
				"KEEPERNAME" : "Ng Bee Choo",
				"TOTALROOMS" : "68",
				"INC_CRC" : "479DDB1B6EFDD7F9",
				"FMEL_UPD_D" : "20250711142807",
				"NAME" : "Aqueen Heritage Hotel - Joo Chiat"
			}
		},
		{
			"type" : "Feature",
			"geometry" : {
				"type" : "Point",
				"coordinates" : [ 103.86118577215878, 1.3123447012247798 ]
			},
			"properties" : {
				"OBJECTID" : 19619,
				"HYPERLINK" : "nicklow@crescendas.com",
				"DESCRIPTION" : null,
				"POSTALCODE" : "338739",
				"KEEPERNAME" : "Ng Bee Choo",
				"TOTALROOMS" : "103",
				"INC_CRC" : "C500B925B12F2944",
				"FMEL_UPD_D" : "20250711142807",
				"NAME" : "AQUEEN Hotel - Lavender"
			}
		},
		{
			"type" : "Feature",
			"geometry" : {
				"type" : "Point",
				"coordinates" : [ 103.95351740877999, 1.3761056641945477 ]
			},
			"properties" : {
				"OBJECTID" : 19620,
				"HYPERLINK" : "reservation@arandaclub.org.sg",
				"DESCRIPTION" : null,
				"POSTALCODE" : "519497",
				"KEEPERNAME" : "Lee Meng Po Benny",
				"TOTALROOMS" : "18",
				"INC_CRC" : "1D10D83C72CD20AB",
				"FMEL_UPD_D" : "20250711142807",
				"NAME" : "Aranda Country Club"
			}
		},
		{
			"type" : "Feature",
			"geometry" : {
				"type" : "Point",
				"coordinates" : [ 103.82698938324549, 1.3058929447817267 ]
			},
			"properties" : {
				"OBJECTID" : 19621,
				"HYPERLINK" : "INFO.SG@ARTYZENHOTELS.COM",
				"DESCRIPTION" : null,
				"POSTALCODE" : "249719",
				"KEEPERNAME" : "MARCELNICOLAASANTONIUSHOLMAN",
				"TOTALROOMS" : "142",
				"INC_CRC" : "F9C29FFE0D03CF64",
				"FMEL_UPD_D" : "20250711142807",
				"NAME" : "ARTYZEN SINGAPORE"
			}
		},
		{
			"type" : "Feature",
			"geometry" : {
				"type" : "Point",
				"coordinates" : [ 103.83716441808369, 1.303975929019245 ]
			},
			"properties" : {
				"OBJECTID" : 19622,
				"HYPERLINK" : null,
				"DESCRIPTION" : null,
				"POSTALCODE" : "229724",
				"KEEPERNAME" : "Eugene Lee",
				"TOTALROOMS" : "220",
				"INC_CRC" : "92DC325F4C7063A5",
				"FMEL_UPD_D" : "20250711142807",
				"NAME" : "Ascott Orchard Singapore"
			}
		},
		{
			"type" : "Feature",
			"geometry" : {
				"type" : "Point",
				"coordinates" : [ 103.84592410160528, 1.2829823504730093 ]
			},
			"properties" : {
				"OBJECTID" : 19623,
				"HYPERLINK" : "info@istayinn.com.sg",
				"DESCRIPTION" : null,
				"POSTALCODE" : "058764",
				"KEEPERNAME" : "Jeremy Teo",
				"TOTALROOMS" : "18",
				"INC_CRC" : "83F4C4ABB55B0511",
				"FMEL_UPD_D" : "20250711142807",
				"NAME" : "BEAT. Arts Hostel @ Chinatown"
			}
		},
		{
			"type" : "Feature",
			"geometry" : {
				"type" : "Point",
				"coordinates" : [ 103.8526415389543, 1.3049947047820882 ]
			},
			"properties" : {
				"OBJECTID" : 19624,
				"HYPERLINK" : "info@campbellinn.net",
				"DESCRIPTION" : null,
				"POSTALCODE" : "209922",
				"KEEPERNAME" : "Lim Kok Yew",
				"TOTALROOMS" : "11",
				"INC_CRC" : "AEC03440AA206143",
				"FMEL_UPD_D" : "20250711142807",
				"NAME" : "Campbell Inn"
			}
		},
		{
			"type" : "Feature",
			"geometry" : {
				"type" : "Point",
				"coordinates" : [ 103.82437822909891, 1.2494829740691205 ]
			},
			"properties" : {
				"OBJECTID" : 19625,
				"HYPERLINK" : "gr.singapore@capellahotels.com",
				"DESCRIPTION" : null,
				"POSTALCODE" : "098297",
				"KEEPERNAME" : "Jackson Paul Harry",
				"TOTALROOMS" : "193",
				"INC_CRC" : "9CA2E74FA34029AE",
				"FMEL_UPD_D" : "20250711142807",
				"NAME" : "Capella Hotel, Singapore"
			}
		},
		{
			"type" : "Feature",
			"geometry" : {
				"type" : "Point",
				"coordinates" : [ 103.85143882517806, 1.3051222174520205 ]
			},
			"properties" : {
				"OBJECTID" : 19626,
				"HYPERLINK" : "frontoffice.crsg@the-ascott.com",
				"DESCRIPTION" : null,
				"POSTALCODE" : "218227",
				"KEEPERNAME" : "Soh Ai Fong",
				"TOTALROOMS" : "320",
				"INC_CRC" : "15C288F92AD5CB4C",
				"FMEL_UPD_D" : "20250711142807",
				"NAME" : "Citadines Rochor Singapore"
			}
		},
		{
			"type" : "Feature",
			"geometry" : {
				"type" : "Point",
				"coordinates" : [ 103.85966046343651, 1.3008048357830049 ]
			},
			"properties" : {
				"OBJECTID" : 19627,
				"HYPERLINK" : "chingyeng.chong@coliwoo.com",
				"DESCRIPTION" : null,
				"POSTALCODE" : "199745",
				"KEEPERNAME" : "Lim Lung Tieng",
				"TOTALROOMS" : "24",
				"INC_CRC" : "57793D18B8EDC2A3",
				"FMEL_UPD_D" : "20250711142807",
				"NAME" : "Coliwoo Hotel Kampong Glam"
			}
		},
		{
			"type" : "Feature",
			"geometry" : {
				"type" : "Point",
				"coordinates" : [ 103.84539105961034, 1.2820443105045414 ]
			},
			"properties" : {
				"OBJECTID" : 19628,
				"HYPERLINK" : "ah_chye2510@hotmail.com",
				"DESCRIPTION" : null,
				"POSTALCODE" : "058812",
				"KEEPERNAME" : "KHOO HOCK CHYE",
				"TOTALROOMS" : "5",
				"INC_CRC" : "2355E846FB66E627",
				"FMEL_UPD_D" : "20250711142807",
				"NAME" : "Coller Chinatown"
			}
		},
		{
			"type" : "Feature",
			"geometry" : {
				"type" : "Point",
				"coordinates" : [ 103.78832325146476, 1.4052369658012083 ]
			},
			"properties" : {
				"OBJECTID" : 19629,
				"HYPERLINK" : "sales.campfront@mandai.com",
				"DESCRIPTION" : null,
				"POSTALCODE" : "729826",
				"KEEPERNAME" : "Clement Tan Choun Wei",
				"TOTALROOMS" : "20",
				"INC_CRC" : "696B747E3C49A6E2",
				"FMEL_UPD_D" : "20250711142807",
				"NAME" : "Colugo Camp, Mandai Wildlife East"
			}
		},
		{
			"type" : "Feature",
			"geometry" : {
				"type" : "Point",
				"coordinates" : [ 103.85877475132949, 1.2935250434359227 ]
			},
			"properties" : {
				"OBJECTID" : 19630,
				"HYPERLINK" : "sinci_acc@conradhotels.com",
				"DESCRIPTION" : null,
				"POSTALCODE" : "038982",
				"KEEPERNAME" : "WILLIAMSON MICHAEL HOWARD",
				"TOTALROOMS" : "512",
				"INC_CRC" : "B345D633A9321717",
				"FMEL_UPD_D" : "20250711142807",
				"NAME" : "Conrad Singapore Marina Bay"
			}
		},
		{
			"type" : "Feature",
			"geometry" : {
				"type" : "Point",
				"coordinates" : [ 103.98794717255242, 1.3586803473496607 ]
			},
			"properties" : {
				"OBJECTID" : 19631,
				"HYPERLINK" : "sincp@ihg.com",
				"DESCRIPTION" : null,
				"POSTALCODE" : "819664",
				"KEEPERNAME" : "GUBIANI GREGORY",
				"TOTALROOMS" : "575",
				"INC_CRC" : "AF34378E791DB7E4",
				"FMEL_UPD_D" : "20250711142807",
				"NAME" : "Crowne Plaza Changi Airport"
			}
		},
		{
			"type" : "Feature",
			"geometry" : {
				"type" : "Point",
				"coordinates" : [ 103.8492406489303, 1.2879687167213167 ]
			},
			"properties" : {
				"OBJECTID" : 19632,
				"HYPERLINK" : null,
				"DESCRIPTION" : null,
				"POSTALCODE" : "049859",
				"KEEPERNAME" : "TAY MING HUI SONIA",
				"TOTALROOMS" : "16",
				"INC_CRC" : "673466156D875065",
				"FMEL_UPD_D" : "20250711142807",
				"NAME" : "CUBE SOCIAL BOUTIQUE CAPSULE HOTEL"
			}
		},
		{
			"type" : "Feature",
			"geometry" : {
				"type" : "Point",
				"coordinates" : [ 103.84979867054427, 1.304378338159543 ]
			},
			"properties" : {
				"OBJECTID" : 19633,
				"HYPERLINK" : null,
				"DESCRIPTION" : null,
				"POSTALCODE" : "228677",
				"KEEPERNAME" : "Liu Hang",
				"TOTALROOMS" : "40",
				"INC_CRC" : "F4F09F305DCCFBBB",
				"FMEL_UPD_D" : "20250711142807",
				"NAME" : "Dash Living on Mackenzie"
			}
		},
		{
			"type" : "Feature",
			"geometry" : {
				"type" : "Point",
				"coordinates" : [ 103.8777367671985, 1.3119221116123392 ]
			},
			"properties" : {
				"OBJECTID" : 19634,
				"HYPERLINK" : null,
				"DESCRIPTION" : null,
				"POSTALCODE" : "399035",
				"KEEPERNAME" : "KWANG XUAN FENG, PATRICK",
				"TOTALROOMS" : "25",
				"INC_CRC" : "0A3BE58677E65A15",
				"FMEL_UPD_D" : "20250711142807",
				"NAME" : "D'Nova Hotel Kallang"
			}
		},
		{
			"type" : "Feature",
			"geometry" : {
				"type" : "Point",
				"coordinates" : [ 103.96358377796885, 1.3342655648280959 ]
			},
			"properties" : {
				"OBJECTID" : 19635,
				"HYPERLINK" : "reservation.changicity@dorsetthotels.comr.com",
				"DESCRIPTION" : null,
				"POSTALCODE" : "486037",
				"KEEPERNAME" : "Ng Sock Heng (Huang ShuTing)",
				"TOTALROOMS" : "313",
				"INC_CRC" : "8E9AFDE81EB524BF",
				"FMEL_UPD_D" : "20250711142807",
				"NAME" : "Dorsett Changi City Singapore"
			}
		},
		{
			"type" : "Feature",
			"geometry" : {
				"type" : "Point",
				"coordinates" : [ 103.8609336162622, 1.3016812636175246 ]
			},
			"properties" : {
				"OBJECTID" : 19636,
				"HYPERLINK" : "chris@dream-chaser.sg",
				"DESCRIPTION" : null,
				"POSTALCODE" : "198486",
				"KEEPERNAME" : "LIOW HONG MENG",
				"TOTALROOMS" : "20",
				"INC_CRC" : "F5FFA1C7D3132142",
				"FMEL_UPD_D" : "20250711142807",
				"NAME" : "Dream Chaser"
			}
		},
		{
			"type" : "Feature",
			"geometry" : {
				"type" : "Point",
				"coordinates" : [ 103.85825932899539, 1.3102379425273625 ]
			},
			"properties" : {
				"OBJECTID" : 19637,
				"HYPERLINK" : "SAM@DREAMLODGE.SG",
				"DESCRIPTION" : null,
				"POSTALCODE" : "208934",
				"KEEPERNAME" : "CHEN YOUQIANG SAMUEL",
				"TOTALROOMS" : "5",
				"INC_CRC" : "2A496687BAE2DB8A",
				"FMEL_UPD_D" : "20250711142807",
				"NAME" : "DREAM LODGE @ FARRER PARK"
			}
		},
		{
			"type" : "Feature",
			"geometry" : {
				"type" : "Point",
				"coordinates" : [ 103.95359908680598, 1.3771407342796123 ]
			},
			"properties" : {
				"OBJECTID" : 19638,
				"HYPERLINK" : "reservations@dresort.com.sg",
				"DESCRIPTION" : null,
				"POSTALCODE" : "519599",
				"KEEPERNAME" : "CHEAH WING HOE HENRY",
				"TOTALROOMS" : "387",
				"INC_CRC" : "EE602DE88753DD77",
				"FMEL_UPD_D" : "20250711142807",
				"NAME" : "D'RESORT @ DOWNTOWN EAST"
			}
		},
		{
			"type" : "Feature",
			"geometry" : {
				"type" : "Point",
				"coordinates" : [ 103.87396327541465, 1.3112955193731317 ]
			},
			"properties" : {
				"OBJECTID" : 19639,
				"HYPERLINK" : null,
				"DESCRIPTION" : null,
				"POSTALCODE" : "389226",
				"KEEPERNAME" : "LIN JINHAI",
				"TOTALROOMS" : "19",
				"INC_CRC" : "8774DC9691796A79",
				"FMEL_UPD_D" : "20250711142807",
				"NAME" : "DUKE Hostel"
			}
		},
		{
			"type" : "Feature",
			"geometry" : {
				"type" : "Point",
				"coordinates" : [ 103.84318786026554, 1.278870346367847 ]
			},
			"properties" : {
				"OBJECTID" : 19640,
				"HYPERLINK" : "administration.manager@thegarchagroup.com",
				"DESCRIPTION" : null,
				"POSTALCODE" : "089540",
				"KEEPERNAME" : "Harpreet Kaur Bedi",
				"TOTALROOMS" : "49",
				"INC_CRC" : "62177A40AC9A781A",
				"FMEL_UPD_D" : "20250711142807",
				"NAME" : "Duxton Reserve Singapore, Autograph Collection"
			}
		},
		{
			"type" : "Feature",
			"geometry" : {
				"type" : "Point",
				"coordinates" : [ 103.84556844082445, 1.2835140997799905 ]
			},
			"properties" : {
				"OBJECTID" : 19641,
				"HYPERLINK" : "reservations@galaxypods.com.sg",
				"DESCRIPTION" : null,
				"POSTALCODE" : "059505",
				"KEEPERNAME" : "RICHARD YUEN YEW KWONG",
				"TOTALROOMS" : "5",
				"INC_CRC" : "6B37C671399B8A19",
				"FMEL_UPD_D" : "20250711142807",
				"NAME" : "GALAXY PODS CHINATOWN"
			}
		},
		{
			"type" : "Feature",
			"geometry" : {
				"type" : "Point",
				"coordinates" : [ 103.85942784407192, 1.31564004044021 ]
			},
			"properties" : {
				"OBJECTID" : 19642,
				"HYPERLINK" : "gapyearhostel@gmail.com",
				"DESCRIPTION" : null,
				"POSTALCODE" : "338821",
				"KEEPERNAME" : "Wang Jianchao",
				"TOTALROOMS" : "7",
				"INC_CRC" : "F48FE4F36A703625",
				"FMEL_UPD_D" : "20250711142807",
				"NAME" : "Gap Year Hostel"
			}
		},
		{
			"type" : "Feature",
			"geometry" : {
				"type" : "Point",
				"coordinates" : [ 103.8781213189135, 1.3114004311311402 ]
			},
			"properties" : {
				"OBJECTID" : 19643,
				"HYPERLINK" : "hotelsuitessg@gmail.com",
				"DESCRIPTION" : null,
				"POSTALCODE" : "398993",
				"KEEPERNAME" : "Lee Yi, Christabelle",
				"TOTALROOMS" : "165",
				"INC_CRC" : "01012B3359A78CEB",
				"FMEL_UPD_D" : "20250711142807",
				"NAME" : "GoStay Hotel"
			}
		},
		{
			"type" : "Feature",
			"geometry" : {
				"type" : "Point",
				"coordinates" : [ 103.83514795784397, 1.2902819270049377 ]
			},
			"properties" : {
				"OBJECTID" : 19644,
				"HYPERLINK" : "enquiry.gcw@millenniumhotels.com",
				"DESCRIPTION" : null,
				"POSTALCODE" : "169663",
				"KEEPERNAME" : "TAN YOU YUAN ANDREW",
				"TOTALROOMS" : "573",
				"INC_CRC" : "6E857A24B1926F35",
				"FMEL_UPD_D" : "20250711142807",
				"NAME" : "Grand Copthorne Waterfront Hotel Singapore"
			}
		},
		{
			"type" : "Feature",
			"geometry" : {
				"type" : "Point",
				"coordinates" : [ 103.83325717965491, 1.3063729959809232 ]
			},
			"properties" : {
				"OBJECTID" : 19645,
				"HYPERLINK" : "singapore.grand@hyatt.com",
				"DESCRIPTION" : null,
				"POSTALCODE" : "228211",
				"KEEPERNAME" : "Willi Beat Martin",
				"TOTALROOMS" : "699",
				"INC_CRC" : "0208FFCF461C60FA",
				"FMEL_UPD_D" : "20250711142807",
				"NAME" : "Grand Hyatt Singapore"
			}
		},
		{
			"type" : "Feature",
			"geometry" : {
				"type" : "Point",
				"coordinates" : [ 103.8349034953989, 1.2846870728598991 ]
			},
			"properties" : {
				"OBJECTID" : 19646,
				"HYPERLINK" : "exposure_intl@yahoo.com",
				"DESCRIPTION" : null,
				"POSTALCODE" : "169046",
				"KEEPERNAME" : "AUDREY BINTI MUSA",
				"TOTALROOMS" : "8",
				"INC_CRC" : "3FC98F14BFF288D0",
				"FMEL_UPD_D" : "20250711142807",
				"NAME" : "Gusti Bed & Breakfast Singapore"
			}
		},
		{
			"type" : "Feature",
			"geometry" : {
				"type" : "Point",
				"coordinates" : [ 103.84710167316734, 1.2870554554887166 ]
			},
			"properties" : {
				"OBJECTID" : 19647,
				"HYPERLINK" : "clarkequay@habyt.com",
				"DESCRIPTION" : null,
				"POSTALCODE" : "059293",
				"KEEPERNAME" : "Jonathan Wong Kee Wee",
				"TOTALROOMS" : "33",
				"INC_CRC" : "684B4BB4571C66BB",
				"FMEL_UPD_D" : "20250711142807",
				"NAME" : "Habyt Clarke Quay"
			}
		},
		{
			"type" : "Feature",
			"geometry" : {
				"type" : "Point",
				"coordinates" : [ 103.8737412819336, 1.3111951620435263 ]
			},
			"properties" : {
				"OBJECTID" : 19648,
				"HYPERLINK" : "kallang@habyt.com",
				"DESCRIPTION" : null,
				"POSTALCODE" : "389218",
				"KEEPERNAME" : "Jonathan Wong Kee Wee",
				"TOTALROOMS" : "27",
				"INC_CRC" : "4AA0EEBB92D6F57D",
				"FMEL_UPD_D" : "20250711142807",
				"NAME" : "Habyt Kallang"
			}
		},
		{
			"type" : "Feature",
			"geometry" : {
				"type" : "Point",
				"coordinates" : [ 103.84781726295518, 1.3263232970551893 ]
			},
			"properties" : {
				"OBJECTID" : 19649,
				"HYPERLINK" : "novena@habyt.com",
				"DESCRIPTION" : null,
				"POSTALCODE" : "329842",
				"KEEPERNAME" : "Jonathan Wong Kee Wee",
				"TOTALROOMS" : "39",
				"INC_CRC" : "F52B2AC2C35D2E71",
				"FMEL_UPD_D" : "20250711142807",
				"NAME" : "Habyt Novena"
			}
		},
		{
			"type" : "Feature",
			"geometry" : {
				"type" : "Point",
				"coordinates" : [ 103.86011061272131, 1.3046070469356599 ]
			},
			"properties" : {
				"OBJECTID" : 19650,
				"HYPERLINK" : "sgenquiry@hericoll.com",
				"DESCRIPTION" : null,
				"POSTALCODE" : "199016",
				"KEEPERNAME" : "YAP HUI WEN",
				"TOTALROOMS" : "31",
				"INC_CRC" : "BB84680DC42A261F",
				"FMEL_UPD_D" : "20250711142807",
				"NAME" : "HERITAGE COLLECTION ON VICTORIA"
			}
		},
		{
			"type" : "Feature",
			"geometry" : {
				"type" : "Point",
				"coordinates" : [ 103.81644100023222, 1.3300418623537864 ]
			},
			"properties" : {
				"OBJECTID" : 19651,
				"HYPERLINK" : "reception@HOLLANDSECLUB.ORG.SG",
				"DESCRIPTION" : null,
				"POSTALCODE" : "299814",
				"KEEPERNAME" : "ESTHER MARTINA MARIA VAN BEMMELEN",
				"TOTALROOMS" : "7",
				"INC_CRC" : "E4295A351A966730",
				"FMEL_UPD_D" : "20250711142807",
				"NAME" : "Hollandse Club"
			}
		},
		{
			"type" : "Feature",
			"geometry" : {
				"type" : "Point",
				"coordinates" : [ 103.85627400250318, 1.310478925957774 ]
			},
			"properties" : {
				"OBJECTID" : 19652,
				"HYPERLINK" : "accounts@hotel165.sg",
				"DESCRIPTION" : null,
				"POSTALCODE" : "208532",
				"KEEPERNAME" : "Teo Ai Choo",
				"TOTALROOMS" : "68",
				"INC_CRC" : "9B968226A707AFF2",
				"FMEL_UPD_D" : "20250711142807",
				"NAME" : "Hotel 165"
			}
		},
		{
			"type" : "Feature",
			"geometry" : {
				"type" : "Point",
				"coordinates" : [ 103.86026809131616, 1.303360250121849 ]
			},
			"properties" : {
				"OBJECTID" : 19653,
				"HYPERLINK" : "admin@jjh.com.sg",
				"DESCRIPTION" : null,
				"POSTALCODE" : "199948",
				"KEEPERNAME" : "Than Naing",
				"TOTALROOMS" : "54",
				"INC_CRC" : "338C31C662D32F08",
				"FMEL_UPD_D" : "20250711142807",
				"NAME" : "HOTEL JJH ALIWAL"
			}
		},
		{
			"type" : "Feature",
			"geometry" : {
				"type" : "Point",
				"coordinates" : [ 103.85002054463888, 1.2989858231021358 ]
			},
			"properties" : {
				"OBJECTID" : 19654,
				"HYPERLINK" : "contact@hotelmi.sg",
				"DESCRIPTION" : null,
				"POSTALCODE" : "189623",
				"KEEPERNAME" : "Chua Pong Thia",
				"TOTALROOMS" : "342",
				"INC_CRC" : "AC77950694502B25",
				"FMEL_UPD_D" : "20250711142807",
				"NAME" : "Hotel Mi Bencoolen"
			}
		},
		{
			"type" : "Feature",
			"geometry" : {
				"type" : "Point",
				"coordinates" : [ 103.88186195762655, 1.311166444400932 ]
			},
			"properties" : {
				"OBJECTID" : 19655,
				"HYPERLINK" : null,
				"DESCRIPTION" : null,
				"POSTALCODE" : "398691",
				"KEEPERNAME" : "LEE YI, CHRISTABELLE",
				"TOTALROOMS" : "42",
				"INC_CRC" : "4638172FCB7380BE",
				"FMEL_UPD_D" : "20250711142807",
				"NAME" : "Hotel Pods"
			}
		},
		{
			"type" : "Feature",
			"geometry" : {
				"type" : "Point",
				"coordinates" : [ 103.86416930307445, 1.3023665516191751 ]
			},
			"properties" : {
				"OBJECTID" : 19656,
				"HYPERLINK" : "vangel.neo@contracts.com.sg",
				"DESCRIPTION" : null,
				"POSTALCODE" : "199598",
				"KEEPERNAME" : "Neo Poh Hoon",
				"TOTALROOMS" : "300",
				"INC_CRC" : "122395C05AD7147B",
				"FMEL_UPD_D" : "20250711142807",
				"NAME" : "Hotel Traveltine"
			}
		},
		{
			"type" : "Feature",
			"geometry" : {
				"type" : "Point",
				"coordinates" : [ 103.83855170706451, 1.2898410226914374 ]
			},
			"properties" : {
				"OBJECTID" : 19657,
				"HYPERLINK" : "info.sinic@ihg.com",
				"DESCRIPTION" : null,
				"POSTALCODE" : "238909",
				"KEEPERNAME" : "Quinn Kieran James Philip",
				"TOTALROOMS" : "225",
				"INC_CRC" : "B7C8F6B552314725",
				"FMEL_UPD_D" : "20250711142807",
				"NAME" : "InterContinental Singapore Robertson Quay"
			}
		},
		{
			"type" : "Feature",
			"geometry" : {
				"type" : "Point",
				"coordinates" : [ 103.8527020977876, 1.2290663129964385 ]
			},
			"properties" : {
				"OBJECTID" : 19658,
				"HYPERLINK" : null,
				"DESCRIPTION" : null,
				"POSTALCODE" : "099551",
				"KEEPERNAME" : "Toh Kian Foo",
				"TOTALROOMS" : "9",
				"INC_CRC" : "322201BF4E59414C",
				"FMEL_UPD_D" : "20250711142807",
				"NAME" : "Into the Woods"
			}
		},
		{
			"type" : "Feature",
			"geometry" : {
				"type" : "Point",
				"coordinates" : [ 103.84445511273483, 1.297722839746995 ]
			},
			"properties" : {
				"OBJECTID" : 19659,
				"HYPERLINK" : null,
				"DESCRIPTION" : null,
				"POSTALCODE" : "238485",
				"KEEPERNAME" : "Zhang Yuzhe",
				"TOTALROOMS" : "81",
				"INC_CRC" : "66BD9D0FBB761C6C",
				"FMEL_UPD_D" : "20250711142807",
				"NAME" : "Ji Hotel Orchard Singapore"
			}
		},
		{
			"type" : "Feature",
			"geometry" : {
				"type" : "Point",
				"coordinates" : [ 103.84154235775682, 1.280619223963971 ]
			},
			"properties" : {
				"OBJECTID" : 19660,
				"HYPERLINK" : null,
				"DESCRIPTION" : null,
				"POSTALCODE" : "089158",
				"KEEPERNAME" : "Kon Thiam Fook",
				"TOTALROOMS" : "60",
				"INC_CRC" : "FD57F84B619456CD",
				"FMEL_UPD_D" : "20250711142807",
				"NAME" : "KeSa House"
			}
		},
		{
			"type" : "Feature",
			"geometry" : {
				"type" : "Point",
				"coordinates" : [ 103.88103663641115, 1.311225584090436 ]
			},
			"properties" : {
				"OBJECTID" : 19661,
				"HYPERLINK" : null,
				"DESCRIPTION" : null,
				"POSTALCODE" : "397662",
				"KEEPERNAME" : "Wong Chee Chung",
				"TOTALROOMS" : "33",
				"INC_CRC" : "9DED7DB98166AD58",
				"FMEL_UPD_D" : "20250711142807",
				"NAME" : "KIP INN"
			}
		},
		{
			"type" : "Feature",
			"geometry" : {
				"type" : "Point",
				"coordinates" : [ 103.8008856418606, 1.2689376836370039 ]
			},
			"properties" : {
				"OBJECTID" : 19662,
				"HYPERLINK" : null,
				"DESCRIPTION" : null,
				"POSTALCODE" : "119193",
				"KEEPERNAME" : "Reynaldo Anabo",
				"TOTALROOMS" : "20",
				"INC_CRC" : "38719C972BB63381",
				"FMEL_UPD_D" : "20250711142807",
				"NAME" : "Labrador Villa"
			}
		},
		{
			"type" : "Feature",
			"geometry" : {
				"type" : "Point",
				"coordinates" : [ 103.83429065729432, 1.2848723856745647 ]
			},
			"properties" : {
				"OBJECTID" : 19663,
				"HYPERLINK" : "info@linkhotel.com.sg",
				"DESCRIPTION" : null,
				"POSTALCODE" : "168733",
				"KEEPERNAME" : "Yap Lay Meng",
				"TOTALROOMS" : "274",
				"INC_CRC" : "DB8D4F17A33B2E04",
				"FMEL_UPD_D" : "20250711142807",
				"NAME" : "Link Hotel"
			}
		},
		{
			"type" : "Feature",
			"geometry" : {
				"type" : "Point",
				"coordinates" : [ 103.85150646729167, 1.3009163900798408 ]
			},
			"properties" : {
				"OBJECTID" : 19664,
				"HYPERLINK" : null,
				"DESCRIPTION" : null,
				"POSTALCODE" : "188980",
				"KEEPERNAME" : "Genevieve Khua",
				"TOTALROOMS" : "308",
				"INC_CRC" : "30B395B702D9E242",
				"FMEL_UPD_D" : "20250711142807",
				"NAME" : "lyf Bugis Singapore"
			}
		},
		{
			"type" : "Feature",
			"geometry" : {
				"type" : "Point",
				"coordinates" : [ 103.84506021481037, 1.2736877692743385 ]
			},
			"properties" : {
				"OBJECTID" : 19665,
				"HYPERLINK" : "Enquiry.MHS@millenniumhotels.com",
				"DESCRIPTION" : null,
				"POSTALCODE" : "079908",
				"KEEPERNAME" : "Edeline Tiong",
				"TOTALROOMS" : "415",
				"INC_CRC" : "3FF220A6CD00B3F7",
				"FMEL_UPD_D" : "20250711142807",
				"NAME" : "M Hotel Singapore"
			}
		},
		{
			"type" : "Feature",
			"geometry" : {
				"type" : "Point",
				"coordinates" : [ 103.8372209283247, 1.2908669926662166 ]
			},
			"properties" : {
				"OBJECTID" : 19666,
				"HYPERLINK" : null,
				"DESCRIPTION" : null,
				"POSTALCODE" : "238259",
				"KEEPERNAME" : "Tan Pee Hock",
				"TOTALROOMS" : "293",
				"INC_CRC" : "72424155AF75EDC8",
				"FMEL_UPD_D" : "20250711142807",
				"NAME" : "M Social Singapore"
			}
		},
		{
			"type" : "Feature",
			"geometry" : {
				"type" : "Point",
				"coordinates" : [ 103.85368664832427, 1.3061971669334629 ]
			},
			"properties" : {
				"OBJECTID" : 19667,
				"HYPERLINK" : "machphersonhotel41@gmail.com",
				"DESCRIPTION" : null,
				"POSTALCODE" : "207398",
				"KEEPERNAME" : "TAN HAN YONG",
				"TOTALROOMS" : "34",
				"INC_CRC" : "E8CF82E650B93446",
				"FMEL_UPD_D" : "20250711142807",
				"NAME" : "MACPHERSON HOTEL"
			}
		},
		{
			"type" : "Feature",
			"geometry" : {
				"type" : "Point",
				"coordinates" : [ 103.78996809644924, 1.4072519728966963 ]
			},
			"properties" : {
				"OBJECTID" : 19668,
				"HYPERLINK" : "reservations-mandairainforest@banyantree.com",
				"DESCRIPTION" : null,
				"POSTALCODE" : "729979",
				"KEEPERNAME" : "Glen Michael Cook",
				"TOTALROOMS" : "338",
				"INC_CRC" : "46194FC397A27A4F",
				"FMEL_UPD_D" : "20250711142807",
				"NAME" : "MANDAI RAINFOREST RESORT BY BANYAN TREE"
			}
		},
		{
			"type" : "Feature",
			"geometry" : {
				"type" : "Point",
				"coordinates" : [ 103.85832398649347, 1.2906605837618454 ]
			},
			"properties" : {
				"OBJECTID" : 19669,
				"HYPERLINK" : null,
				"DESCRIPTION" : null,
				"POSTALCODE" : "039797",
				"KEEPERNAME" : "CHIN MAN ENG",
				"TOTALROOMS" : "510",
				"INC_CRC" : "D9935D84069336DA",
				"FMEL_UPD_D" : "20250711142807",
				"NAME" : "Mandarin Oriental, Singapore"
			}
		},
		{
			"type" : "Feature",
			"geometry" : {
				"type" : "Point",
				"coordinates" : [ 103.88245872542271, 1.3120575897357825 ]
			},
			"properties" : {
				"OBJECTID" : 19670,
				"HYPERLINK" : null,
				"DESCRIPTION" : null,
				"POSTALCODE" : "398678",
				"KEEPERNAME" : "Steven Han How Chye",
				"TOTALROOMS" : "47",
				"INC_CRC" : "CFBF74093BAC96B4",
				"FMEL_UPD_D" : "20220713235853",
				"NAME" : "Kim Tian Hotel"
			}
		},
		{
			"type" : "Feature",
			"geometry" : {
				"type" : "Point",
				"coordinates" : [ 103.87780290317414, 1.311264611252203 ]
			},
			"properties" : {
				"OBJECTID" : 19671,
				"HYPERLINK" : null,
				"DESCRIPTION" : null,
				"POSTALCODE" : "399050",
				"KEEPERNAME" : "Teng Ai Fong",
				"TOTALROOMS" : "35",
				"INC_CRC" : "DAC543AEA585EF1C",
				"FMEL_UPD_D" : "20220713235853",
				"NAME" : "La Mode (Sophia)"
			}
		},